[{"operadora":"Vivo","tecnologia":"3G","municipio":"Pouso Alegre","lat":-22.21833,"lon":-45.93833,"data":"17/08/1999","nova":false},{"operadora":"Vivo","tecnologia":"4G","municipio":"Pouso Alegre","lat":-22.21833,"lon":-45.93833,"data":"17/08/1999","nova":false},{"operadora":"Vivo","tecnologia":"2G","municipio":"Pouso Alegre","lat":-22.21833,"lon":-45.93833,"data":"17/08/1999","nova":false},{"operadora":"Vivo","tecnologia":"2G","municipio":"Belo Horizonte","lat":-19.92329,"lon":-43.92435,"data":"17/08/1999","nova":false},{"operadora":"Vivo","tecnologia":"4G","municipio":"Belo Horizonte","lat":-19.92329,"lon":-43.92435,"data":"17/08/1999","nova":false},{"operadora":"Vivo","tecnologia":"3G","municipio":"Belo Horizonte","lat":-19.92329,"lon":-43.92435,"data":"17/08/1999","nova":false},{"operadora":"Vivo","tecnologia":"3G","municipio":"Belo Horizonte","lat":-19.91528,"lon":-43.91972,"data":"17/08/1999","nova":false},{"operadora":"Vivo","tecnologia":"4G","municipio":"Belo Horizonte","lat":-19.91528,"lon":-43.91972,"data":"17/08/1999","nova":false},{"operadora":"Vivo","tecnologia":"2G","municipio":"Belo Horizonte","lat":-19.91528,"lon":-43.91972,"data":"17/08/1999","nova":false},{"operadora":"Vivo","tecnologia":"3G","municipio":"Ouro Preto","lat":-20.41722,"lon":-43.50556,"data":"17/08/1999","nova":false},{"operadora":"Vivo","tecnologia":"2G","municipio":"Ouro Preto","lat":-20.41722,"lon":-43.50556,"data":"17/08/1999","nova":false},{"operadora":"Vivo","tecnologia":"3G","municipio":"Ponte Nova","lat":-20.41056,"lon":-42.90444,"data":"17/08/1999","nova":false},{"operadora":"Vivo","tecnologia":"2G","municipio":"Ponte Nova","lat":-20.41056,"lon":-42.90444,"data":"17/08/1999","nova":false},{"operadora":"Vivo","tecnologia":"3G","municipio":"Barbacena","lat":-21.2325,"lon":-43.7975,"data":"17/08/1999","nova":false},{"operadora":"Vivo","tecnologia":"4G","municipio":"Barbacena","lat":-21.2325,"lon":-43.7975,"data":"17/08/1999","nova":false},{"operadora":"Vivo","tecnologia":"2G","municipio":"Barbacena","lat":-21.2325,"lon":-43.7975,"data":"17/08/1999","nova":false},{"operadora":"Vivo","tecnologia":"3G","municipio":"Contagem","lat":-19.96139,"lon":-44.03278,"data":"17/08/1999","nova":false},{"operadora":"Vivo","tecnologia":"2G","municipio":"Contagem","lat":-19.96139,"lon":-44.03278,"data":"17/08/1999","nova":false},{"operadora":"Vivo","tecnologia":"4G","municipio":"Contagem","lat":-19.96139,"lon":-44.03278,"data":"17/08/1999","nova":false},{"operadora":"Vivo","tecnologia":"3G","municipio":"Belo Horizonte","lat":-19.88943,"lon":-43.9217,"data":"17/08/1999","nova":false},{"operadora":"Vivo","tecnologia":"2G","municipio":"Belo Horizonte","lat":-19.88943,"lon":-43.9217,"data":"17/08/1999","nova":false},{"operadora":"Vivo","tecnologia":"3G","municipio":"Patrocínio","lat":-18.91611,"lon":-47.00583,"data":"17/08/1999","nova":false},{"operadora":"Vivo","tecnologia":"4G","municipio":"Patrocínio","lat":-18.91611,"lon":-47.00583,"data":"17/08/1999","nova":false},{"operadora":"Vivo","tecnologia":"4G","municipio":"Bom Despacho","lat":-19.738278,"lon":-45.246108,"data":"17/08/1999","nova":false},{"operadora":"Vivo","tecnologia":"2G","municipio":"Bom Despacho","lat":-19.738278,"lon":-45.246108,"data":"17/08/1999","nova":false},{"operadora":"Vivo","tecnologia":"3G","municipio":"Bom Despacho","lat":-19.738278,"lon":-45.246108,"data":"17/08/1999","nova":false},{"operadora":"Vivo","tecnologia":"3G","municipio":"Contagem","lat":-19.89756,"lon":-44.04739,"data":"17/08/1999","nova":false},{"operadora":"Vivo","tecnologia":"2G","municipio":"Contagem","lat":-19.89756,"lon":-44.04739,"data":"17/08/1999","nova":false},{"operadora":"Vivo","tecnologia":"4G","municipio":"Contagem","lat":-19.89756,"lon":-44.04739,"data":"17/08/1999","nova":false},{"operadora":"Vivo","tecnologia":"3G","municipio":"Nanuque","lat":-17.845,"lon":-40.35389,"data":"17/08/1999","nova":false},{"operadora":"Vivo","tecnologia":"4G","municipio":"Nanuque","lat":-17.845,"lon":-40.35389,"data":"17/08/1999","nova":false},{"operadora":"Vivo","tecnologia":"2G","municipio":"Nanuque","lat":-17.845,"lon":-40.35389,"data":"17/08/1999","nova":false},{"operadora":"Vivo","tecnologia":"2G","municipio":"Belo Horizonte","lat":-19.92722,"lon":-43.92917,"data":"17/08/1999","nova":false},{"operadora":"Vivo","tecnologia":"3G","municipio":"Belo Horizonte","lat":-19.92722,"lon":-43.92917,"data":"17/08/1999","nova":false},{"operadora":"Vivo","tecnologia":"4G","municipio":"Belo Horizonte","lat":-19.92722,"lon":-43.92917,"data":"17/08/1999","nova":false},{"operadora":"Vivo","tecnologia":"4G","municipio":"Belo Horizonte","lat":-19.84225,"lon":-43.987556,"data":"17/08/1999","nova":false},{"operadora":"Vivo","tecnologia":"2G","municipio":"Belo Horizonte","lat":-19.84225,"lon":-43.987556,"data":"17/08/1999","nova":false},{"operadora":"Vivo","tecnologia":"3G","municipio":"Belo Horizonte","lat":-19.84225,"lon":-43.987556,"data":"17/08/1999","nova":false},{"operadora":"Vivo","tecnologia":"2G","municipio":"Contagem","lat":-19.92472,"lon":-44.0675,"data":"01/01/1999","nova":false},{"operadora":"Vivo","tecnologia":"3G","municipio":"Lagoa Santa","lat":-19.61667,"lon":-43.88333,"data":"17/08/1999","nova":false},{"operadora":"Vivo","tecnologia":"4G","municipio":"Lagoa Santa","lat":-19.61667,"lon":-43.88333,"data":"17/08/1999","nova":false},{"operadora":"Vivo","tecnologia":"2G","municipio":"Lagoa Santa","lat":-19.61667,"lon":-43.88333,"data":"17/08/1999","nova":false},{"operadora":"Vivo","tecnologia":"3G","municipio":"Ibirité","lat":-20.024722,"lon":-44.058333,"data":"17/08/1999","nova":false},{"operadora":"Vivo","tecnologia":"3G","municipio":"São Lourenço","lat":-22.11972,"lon":-45.05472,"data":"17/08/1999","nova":false},{"operadora":"Vivo","tecnologia":"2G","municipio":"São Lourenço","lat":-22.11972,"lon":-45.05472,"data":"17/08/1999","nova":false},{"operadora":"Vivo","tecnologia":"2G","municipio":"Leopoldina","lat":-21.55139,"lon":-42.64278,"data":"17/08/1999","nova":false},{"operadora":"Vivo","tecnologia":"4G","municipio":"Itaúna","lat":-20.05556,"lon":-44.58222,"data":"17/08/1999","nova":false},{"operadora":"Vivo","tecnologia":"3G","municipio":"Itaúna","lat":-20.05556,"lon":-44.58222,"data":"17/08/1999","nova":false},{"operadora":"Vivo","tecnologia":"2G","municipio":"Itaúna","lat":-20.05556,"lon":-44.58222,"data":"17/08/1999","nova":false},{"operadora":"Vivo","tecnologia":"3G","municipio":"Congonhas","lat":-20.513719,"lon":-43.856858,"data":"17/08/1999","nova":false},{"operadora":"Vivo","tecnologia":"4G","municipio":"Congonhas","lat":-20.513719,"lon":-43.856858,"data":"17/08/1999","nova":false},{"operadora":"Vivo","tecnologia":"2G","municipio":"Congonhas","lat":-20.513719,"lon":-43.856858,"data":"17/08/1999","nova":false},{"operadora":"Vivo","tecnologia":"3G","municipio":"Itajubá","lat":-22.421481,"lon":-45.443981,"data":"17/08/1999","nova":false},{"operadora":"Vivo","tecnologia":"2G","municipio":"Itajubá","lat":-22.421481,"lon":-45.443981,"data":"17/08/1999","nova":false},{"operadora":"Vivo","tecnologia":"3G","municipio":"Itajubá","lat":-22.42139,"lon":-45.44389,"data":"17/08/1999","nova":false},{"operadora":"Vivo","tecnologia":"4G","municipio":"Itajubá","lat":-22.421481,"lon":-45.443981,"data":"17/08/1999","nova":false},{"operadora":"Vivo","tecnologia":"3G","municipio":"Muriaé","lat":-21.13139,"lon":-42.37472,"data":"17/08/1999","nova":false},{"operadora":"Vivo","tecnologia":"4G","municipio":"Muriaé","lat":-21.13139,"lon":-42.37472,"data":"17/08/1999","nova":false},{"operadora":"Vivo","tecnologia":"2G","municipio":"Muriaé","lat":-21.13139,"lon":-42.37472,"data":"17/08/1999","nova":false},{"operadora":"Vivo","tecnologia":"3G","municipio":"Cataguases","lat":-21.38583,"lon":-42.6875,"data":"17/08/1999","nova":false},{"operadora":"Vivo","tecnologia":"2G","municipio":"Cataguases","lat":-21.38583,"lon":-42.6875,"data":"17/08/1999","nova":false},{"operadora":"Vivo","tecnologia":"2G","municipio":"Teófilo Otoni","lat":-17.86083,"lon":-41.505,"data":"17/08/1999","nova":false},{"operadora":"Vivo","tecnologia":"3G","municipio":"Teófilo Otoni","lat":-17.86083,"lon":-41.505,"data":"17/08/1999","nova":false},{"operadora":"Vivo","tecnologia":"4G","municipio":"Belo Horizonte","lat":-19.93472,"lon":-43.93944,"data":"17/08/1999","nova":false},{"operadora":"Vivo","tecnologia":"3G","municipio":"Belo Horizonte","lat":-19.93472,"lon":-43.93944,"data":"17/08/1999","nova":false},{"operadora":"Vivo","tecnologia":"2G","municipio":"Belo Horizonte","lat":-19.93472,"lon":-43.93944,"data":"17/08/1999","nova":false},{"operadora":"Vivo","tecnologia":"2G","municipio":"Belo Horizonte","lat":-19.93611,"lon":-44.00944,"data":"17/08/1999","nova":false},{"operadora":"Vivo","tecnologia":"4G","municipio":"Belo Horizonte","lat":-19.93611,"lon":-44.00944,"data":"17/08/1999","nova":false},{"operadora":"Vivo","tecnologia":"3G","municipio":"Belo Horizonte","lat":-19.93611,"lon":-44.00944,"data":"17/08/1999","nova":false},{"operadora":"Vivo","tecnologia":"3G","municipio":"Belo Horizonte","lat":-19.87444,"lon":-44.00833,"data":"17/08/1999","nova":false},{"operadora":"Vivo","tecnologia":"4G","municipio":"Belo Horizonte","lat":-19.87444,"lon":-44.00833,"data":"17/08/1999","nova":false},{"operadora":"Vivo","tecnologia":"2G","municipio":"Belo Horizonte","lat":-19.87444,"lon":-44.00833,"data":"17/08/1999","nova":false},{"operadora":"Vivo","tecnologia":"3G","municipio":"Araxá","lat":-19.61389,"lon":-46.94556,"data":"17/08/1999","nova":false},{"operadora":"Vivo","tecnologia":"2G","municipio":"Araxá","lat":-19.61389,"lon":-46.94556,"data":"17/08/1999","nova":false},{"operadora":"Vivo","tecnologia":"4G","municipio":"Araxá","lat":-19.61389,"lon":-46.94556,"data":"17/08/1999","nova":false},{"operadora":"Vivo","tecnologia":"3G","municipio":"Viçosa","lat":-20.75972,"lon":-42.88556,"data":"17/08/1999","nova":false},{"operadora":"Vivo","tecnologia":"2G","municipio":"Viçosa","lat":-20.75972,"lon":-42.88556,"data":"17/08/1999","nova":false},{"operadora":"Vivo","tecnologia":"2G","municipio":"Ipatinga","lat":-19.45833,"lon":-42.54278,"data":"17/08/1999","nova":false},{"operadora":"Vivo","tecnologia":"4G","municipio":"Montes Claros","lat":-16.724,"lon":-43.866219,"data":"17/08/1999","nova":false},{"operadora":"Vivo","tecnologia":"3G","municipio":"Montes Claros","lat":-16.724,"lon":-43.866219,"data":"17/08/1999","nova":false},{"operadora":"Vivo","tecnologia":"2G","municipio":"Montes Claros","lat":-16.724,"lon":-43.866219,"data":"17/08/1999","nova":false},{"operadora":"Vivo","tecnologia":"2G","municipio":"Belo Horizonte","lat":-19.95528,"lon":-43.94972,"data":"17/08/1999","nova":false},{"operadora":"Vivo","tecnologia":"4G","municipio":"Belo Horizonte","lat":-19.95528,"lon":-43.94972,"data":"17/08/1999","nova":false},{"operadora":"Vivo","tecnologia":"3G","municipio":"Belo Horizonte","lat":-19.95528,"lon":-43.94972,"data":"17/08/1999","nova":false},{"operadora":"Vivo","tecnologia":"4G","municipio":"Belo Horizonte","lat":-19.87682,"lon":-43.94986,"data":"17/08/1999","nova":false},{"operadora":"Vivo","tecnologia":"2G","municipio":"Belo Horizonte","lat":-19.87682,"lon":-43.94986,"data":"17/08/1999","nova":false},{"operadora":"Vivo","tecnologia":"3G","municipio":"Belo Horizonte","lat":-19.87682,"lon":-43.94986,"data":"17/08/1999","nova":false},{"operadora":"Vivo","tecnologia":"3G","municipio":"São João del Rei","lat":-21.12722,"lon":-44.26167,"data":"17/08/1999","nova":false},{"operadora":"Vivo","tecnologia":"2G","municipio":"São João del Rei","lat":-21.12722,"lon":-44.26167,"data":"17/08/1999","nova":false},{"operadora":"Vivo","tecnologia":"4G","municipio":"São João del Rei","lat":-21.12722,"lon":-44.26167,"data":"17/08/1999","nova":false},{"operadora":"Vivo","tecnologia":"4G","municipio":"Belo Horizonte","lat":-19.827167,"lon":-43.994778,"data":"17/08/1999","nova":false},{"operadora":"Vivo","tecnologia":"3G","municipio":"Belo Horizonte","lat":-19.827167,"lon":-43.994778,"data":"17/08/1999","nova":false},{"operadora":"Vivo","tecnologia":"2G","municipio":"Belo Horizonte","lat":-19.827167,"lon":-43.994778,"data":"17/08/1999","nova":false},{"operadora":"Vivo","tecnologia":"3G","municipio":"Belo Horizonte","lat":-19.92917,"lon":-43.95806,"data":"17/08/1999","nova":false},{"operadora":"Vivo","tecnologia":"4G","municipio":"Belo Horizonte","lat":-19.92917,"lon":-43.95806,"data":"17/08/1999","nova":false},{"operadora":"Vivo","tecnologia":"2G","municipio":"Belo Horizonte","lat":-19.92917,"lon":-43.95806,"data":"17/08/1999","nova":false},{"operadora":"Vivo","tecnologia":"3G","municipio":"Belo Horizonte","lat":-19.851528,"lon":-43.927028,"data":"17/08/1999","nova":false},{"operadora":"Vivo","tecnologia":"2G","municipio":"Belo Horizonte","lat":-19.851528,"lon":-43.927028,"data":"17/08/1999","nova":false},{"operadora":"Vivo","tecnologia":"4G","municipio":"Belo Horizonte","lat":-19.851528,"lon":-43.927028,"data":"17/08/1999","nova":false},{"operadora":"Vivo","tecnologia":"3G","municipio":"Ubá","lat":-21.12569,"lon":-42.94211,"data":"17/08/1999","nova":false},{"operadora":"Vivo","tecnologia":"4G","municipio":"Ubá","lat":-21.12569,"lon":-42.94211,"data":"17/08/1999","nova":false},{"operadora":"Vivo","tecnologia":"2G","municipio":"Ubá","lat":-21.12569,"lon":-42.94211,"data":"17/08/1999","nova":false},{"operadora":"Vivo","tecnologia":"4G","municipio":"Belo Horizonte","lat":-19.89889,"lon":-43.91861,"data":"17/08/1999","nova":false},{"operadora":"Vivo","tecnologia":"3G","municipio":"Belo Horizonte","lat":-19.89889,"lon":-43.91861,"data":"17/08/1999","nova":false},{"operadora":"Vivo","tecnologia":"2G","municipio":"Belo Horizonte","lat":-19.89889,"lon":-43.91861,"data":"17/08/1999","nova":false},{"operadora":"Vivo","tecnologia":"4G","municipio":"Belo Horizonte","lat":-19.90111,"lon":-43.89639,"data":"17/08/1999","nova":false},{"operadora":"Vivo","tecnologia":"2G","municipio":"Belo Horizonte","lat":-19.90111,"lon":-43.89639,"data":"17/08/1999","nova":false},{"operadora":"Vivo","tecnologia":"3G","municipio":"Belo Horizonte","lat":-19.90111,"lon":-43.89639,"data":"17/08/1999","nova":false},{"operadora":"Vivo","tecnologia":"4G","municipio":"Belo Horizonte","lat":-19.834181,"lon":-43.946667,"data":"17/08/1999","nova":false},{"operadora":"Vivo","tecnologia":"3G","municipio":"Belo Horizonte","lat":-19.834181,"lon":-43.946667,"data":"17/08/1999","nova":false},{"operadora":"Vivo","tecnologia":"2G","municipio":"Belo Horizonte","lat":-19.834181,"lon":-43.946667,"data":"17/08/1999","nova":false},{"operadora":"Vivo","tecnologia":"3G","municipio":"Belo Horizonte","lat":-19.90694,"lon":-43.92389,"data":"17/08/1999","nova":false},{"operadora":"Vivo","tecnologia":"4G","municipio":"Belo Horizonte","lat":-19.90694,"lon":-43.92389,"data":"17/08/1999","nova":false},{"operadora":"Vivo","tecnologia":"2G","municipio":"Belo Horizonte","lat":-19.90694,"lon":-43.92389,"data":"17/08/1999","nova":false},{"operadora":"Vivo","tecnologia":"3G","municipio":"Belo Horizonte","lat":-19.92972,"lon":-43.99667,"data":"17/08/1999","nova":false},{"operadora":"Vivo","tecnologia":"2G","municipio":"Belo Horizonte","lat":-19.92972,"lon":-43.99667,"data":"17/08/1999","nova":false},{"operadora":"Vivo","tecnologia":"4G","municipio":"Belo Horizonte","lat":-19.92972,"lon":-43.99667,"data":"17/08/1999","nova":false},{"operadora":"Vivo","tecnologia":"4G","municipio":"Belo Horizonte","lat":-19.89889,"lon":-43.98556,"data":"17/08/1999","nova":false},{"operadora":"Vivo","tecnologia":"3G","municipio":"Belo Horizonte","lat":-19.89889,"lon":-43.98556,"data":"17/08/1999","nova":false},{"operadora":"Vivo","tecnologia":"2G","municipio":"Belo Horizonte","lat":-19.89889,"lon":-43.98556,"data":"17/08/1999","nova":false},{"operadora":"Vivo","tecnologia":"3G","municipio":"Três Corações","lat":-21.68972,"lon":-45.2625,"data":"17/08/1999","nova":false},{"operadora":"Vivo","tecnologia":"2G","municipio":"Três Corações","lat":-21.68972,"lon":-45.2625,"data":"17/08/1999","nova":false},{"operadora":"Vivo","tecnologia":"3G","municipio":"Pouso Alegre","lat":-22.24278,"lon":-45.89083,"data":"17/08/1999","nova":false},{"operadora":"Vivo","tecnologia":"4G","municipio":"Pouso Alegre","lat":-22.24278,"lon":-45.89083,"data":"17/08/1999","nova":false},{"operadora":"Vivo","tecnologia":"2G","municipio":"Pouso Alegre","lat":-22.24278,"lon":-45.89083,"data":"17/08/1999","nova":false},{"operadora":"Vivo","tecnologia":"4G","municipio":"Varginha","lat":-21.57194,"lon":-45.43833,"data":"17/08/1999","nova":false},{"operadora":"Vivo","tecnologia":"3G","municipio":"Varginha","lat":-21.57194,"lon":-45.43833,"data":"17/08/1999","nova":false},{"operadora":"Vivo","tecnologia":"2G","municipio":"Varginha","lat":-21.57194,"lon":-45.43833,"data":"17/08/1999","nova":false},{"operadora":"Vivo","tecnologia":"3G","municipio":"Além Paraíba","lat":-21.88778,"lon":-42.70444,"data":"17/08/1999","nova":false},{"operadora":"Vivo","tecnologia":"2G","municipio":"Além Paraíba","lat":-21.88778,"lon":-42.70444,"data":"17/08/1999","nova":false},{"operadora":"Vivo","tecnologia":"3G","municipio":"Visconde do Rio Branco","lat":-21.01389,"lon":-42.84222,"data":"17/08/1999","nova":false},{"operadora":"Vivo","tecnologia":"2G","municipio":"Visconde do Rio Branco","lat":-21.01389,"lon":-42.84222,"data":"17/08/1999","nova":false},{"operadora":"Vivo","tecnologia":"3G","municipio":"Juiz de Fora","lat":-21.77444,"lon":-43.33778,"data":"17/08/1999","nova":false},{"operadora":"Vivo","tecnologia":"4G","municipio":"Juiz de Fora","lat":-21.77444,"lon":-43.33778,"data":"17/08/1999","nova":false},{"operadora":"Vivo","tecnologia":"2G","municipio":"Juiz de Fora","lat":-21.77444,"lon":-43.33778,"data":"17/08/1999","nova":false},{"operadora":"Vivo","tecnologia":"2G","municipio":"Porteirinha","lat":-15.7075,"lon":-43.0375,"data":"17/08/1999","nova":false},{"operadora":"Vivo","tecnologia":"3G","municipio":"João Pinheiro","lat":-17.75214,"lon":-46.16329,"data":"17/08/1999","nova":false},{"operadora":"Vivo","tecnologia":"4G","municipio":"João Pinheiro","lat":-17.75214,"lon":-46.16329,"data":"17/08/1999","nova":false},{"operadora":"Vivo","tecnologia":"2G","municipio":"João Pinheiro","lat":-17.75214,"lon":-46.16329,"data":"17/08/1999","nova":false},{"operadora":"Vivo","tecnologia":"3G","municipio":"Formiga","lat":-20.457369,"lon":-45.433181,"data":"17/08/1999","nova":false},{"operadora":"Vivo","tecnologia":"4G","municipio":"Formiga","lat":-20.457369,"lon":-45.433181,"data":"17/08/1999","nova":false},{"operadora":"Vivo","tecnologia":"2G","municipio":"Formiga","lat":-20.457369,"lon":-45.433181,"data":"17/08/1999","nova":false},{"operadora":"Vivo","tecnologia":"3G","municipio":"Coromandel","lat":-18.485858,"lon":-47.197,"data":"17/08/1999","nova":false},{"operadora":"Vivo","tecnologia":"2G","municipio":"Coromandel","lat":-18.485858,"lon":-47.197,"data":"17/08/1999","nova":false},{"operadora":"Vivo","tecnologia":"3G","municipio":"São Gotardo","lat":-19.31917,"lon":-46.03917,"data":"17/08/1999","nova":false},{"operadora":"Vivo","tecnologia":"4G","municipio":"São Gotardo","lat":-19.31917,"lon":-46.03917,"data":"17/08/1999","nova":false},{"operadora":"Vivo","tecnologia":"3G","municipio":"Curvelo","lat":-18.75278,"lon":-44.42972,"data":"17/08/1999","nova":false},{"operadora":"Vivo","tecnologia":"2G","municipio":"Curvelo","lat":-18.75278,"lon":-44.42972,"data":"17/08/1999","nova":false},{"operadora":"Vivo","tecnologia":"4G","municipio":"Guaxupé","lat":-21.31028,"lon":-46.71389,"data":"17/08/1999","nova":false},{"operadora":"Vivo","tecnologia":"2G","municipio":"Guaxupé","lat":-21.31028,"lon":-46.71389,"data":"17/08/1999","nova":false},{"operadora":"Vivo","tecnologia":"3G","municipio":"Guaxupé","lat":-21.31028,"lon":-46.71389,"data":"17/08/1999","nova":false},{"operadora":"Vivo","tecnologia":"4G","municipio":"Machado","lat":-21.67989,"lon":-45.9261,"data":"17/08/1999","nova":false},{"operadora":"Vivo","tecnologia":"3G","municipio":"Machado","lat":-21.67989,"lon":-45.9261,"data":"17/08/1999","nova":false},{"operadora":"Vivo","tecnologia":"2G","municipio":"Machado","lat":-21.67989,"lon":-45.9261,"data":"17/08/1999","nova":false},{"operadora":"Vivo","tecnologia":"3G","municipio":"Juiz de Fora","lat":-21.75083,"lon":-43.36694,"data":"17/08/1999","nova":false},{"operadora":"Vivo","tecnologia":"2G","municipio":"Juiz de Fora","lat":-21.75083,"lon":-43.36694,"data":"17/08/1999","nova":false},{"operadora":"Vivo","tecnologia":"4G","municipio":"Juiz de Fora","lat":-21.75083,"lon":-43.36694,"data":"17/08/1999","nova":false},{"operadora":"Vivo","tecnologia":"3G","municipio":"Mariana","lat":-20.36722,"lon":-43.42444,"data":"17/08/1999","nova":false},{"operadora":"Vivo","tecnologia":"2G","municipio":"Mariana","lat":-20.36722,"lon":-43.42444,"data":"17/08/1999","nova":false},{"operadora":"Vivo","tecnologia":"4G","municipio":"Mariana","lat":-20.36722,"lon":-43.42444,"data":"17/08/1999","nova":false},{"operadora":"Vivo","tecnologia":"2G","municipio":"Lambari","lat":-21.94667,"lon":-45.35639,"data":"17/08/1999","nova":false},{"operadora":"Vivo","tecnologia":"4G","municipio":"Oliveira","lat":-20.68464,"lon":-44.83128,"data":"17/08/1999","nova":false},{"operadora":"Vivo","tecnologia":"3G","municipio":"Oliveira","lat":-20.68464,"lon":-44.83128,"data":"17/08/1999","nova":false},{"operadora":"Vivo","tecnologia":"2G","municipio":"Oliveira","lat":-20.68464,"lon":-44.83128,"data":"17/08/1999","nova":false},{"operadora":"Vivo","tecnologia":"3G","municipio":"Andradas","lat":-22.04639,"lon":-46.56694,"data":"17/08/1999","nova":false},{"operadora":"Vivo","tecnologia":"2G","municipio":"Andradas","lat":-22.04639,"lon":-46.56694,"data":"17/08/1999","nova":false},{"operadora":"Vivo","tecnologia":"3G","municipio":"Juiz de Fora","lat":-21.76306,"lon":-43.35833,"data":"17/08/1999","nova":false},{"operadora":"Vivo","tecnologia":"2G","municipio":"Juiz de Fora","lat":-21.76306,"lon":-43.35833,"data":"17/08/1999","nova":false},{"operadora":"Vivo","tecnologia":"4G","municipio":"Belo Horizonte","lat":-19.91861,"lon":-43.92583,"data":"17/08/1999","nova":false},{"operadora":"Vivo","tecnologia":"3G","municipio":"Belo Horizonte","lat":-19.91861,"lon":-43.92583,"data":"17/08/1999","nova":false},{"operadora":"Vivo","tecnologia":"2G","municipio":"Belo Horizonte","lat":-19.91861,"lon":-43.92583,"data":"17/08/1999","nova":false},{"operadora":"Vivo","tecnologia":"3G","municipio":"Belo Horizonte","lat":-19.92611,"lon":-43.95194,"data":"17/08/1999","nova":false},{"operadora":"Vivo","tecnologia":"2G","municipio":"Belo Horizonte","lat":-19.92611,"lon":-43.95194,"data":"17/08/1999","nova":false},{"operadora":"Vivo","tecnologia":"4G","municipio":"Belo Horizonte","lat":-19.92611,"lon":-43.95194,"data":"17/08/1999","nova":false},{"operadora":"Vivo","tecnologia":"3G","municipio":"Belo Horizonte","lat":-19.91444,"lon":-43.94722,"data":"17/08/1999","nova":false},{"operadora":"Vivo","tecnologia":"4G","municipio":"Belo Horizonte","lat":-19.91444,"lon":-43.94722,"data":"17/08/1999","nova":false},{"operadora":"Vivo","tecnologia":"2G","municipio":"Belo Horizonte","lat":-19.91444,"lon":-43.94722,"data":"17/08/1999","nova":false},{"operadora":"Vivo","tecnologia":"4G","municipio":"Belo Horizonte","lat":-19.93139,"lon":-43.94889,"data":"17/08/1999","nova":false},{"operadora":"Vivo","tecnologia":"2G","municipio":"Belo Horizonte","lat":-19.93139,"lon":-43.94889,"data":"17/08/1999","nova":false},{"operadora":"Vivo","tecnologia":"4G","municipio":"Manhuaçu","lat":-20.25135,"lon":-42.04292,"data":"17/08/1999","nova":false},{"operadora":"Vivo","tecnologia":"2G","municipio":"Manhuaçu","lat":-20.25135,"lon":-42.04292,"data":"17/08/1999","nova":false},{"operadora":"Vivo","tecnologia":"3G","municipio":"Caratinga","lat":-19.794442,"lon":-42.123639,"data":"17/08/1999","nova":false},{"operadora":"Vivo","tecnologia":"2G","municipio":"Caratinga","lat":-19.794442,"lon":-42.123639,"data":"17/08/1999","nova":false},{"operadora":"Vivo","tecnologia":"2G","municipio":"Governador Valadares","lat":-18.88611,"lon":-41.91694,"data":"17/08/1999","nova":false},{"operadora":"Vivo","tecnologia":"2G","municipio":"Sete Lagoas","lat":-19.44833,"lon":-44.27167,"data":"17/08/1999","nova":false},{"operadora":"Vivo","tecnologia":"3G","municipio":"João Monlevade","lat":-19.820833,"lon":-43.173611,"data":"17/08/1999","nova":false},{"operadora":"Vivo","tecnologia":"2G","municipio":"João Monlevade","lat":-19.820833,"lon":-43.173611,"data":"17/08/1999","nova":false},{"operadora":"Vivo","tecnologia":"3G","municipio":"Itabira","lat":-19.60194,"lon":-43.24083,"data":"17/08/1999","nova":false},{"operadora":"Vivo","tecnologia":"2G","municipio":"Itabira","lat":-19.60194,"lon":-43.24083,"data":"17/08/1999","nova":false},{"operadora":"Vivo","tecnologia":"3G","municipio":"Nova Lima","lat":-19.97328,"lon":-43.84486,"data":"17/08/1999","nova":false},{"operadora":"Vivo","tecnologia":"2G","municipio":"Nova Lima","lat":-19.97328,"lon":-43.84486,"data":"17/08/1999","nova":false},{"operadora":"Vivo","tecnologia":"3G","municipio":"Belo Horizonte","lat":-19.86917,"lon":-43.9575,"data":"17/08/1999","nova":false},{"operadora":"Vivo","tecnologia":"2G","municipio":"Belo Horizonte","lat":-19.86917,"lon":-43.9575,"data":"17/08/1999","nova":false},{"operadora":"Vivo","tecnologia":"3G","municipio":"Belo Horizonte","lat":-19.82083,"lon":-43.95083,"data":"17/08/1999","nova":false},{"operadora":"Vivo","tecnologia":"2G","municipio":"Belo Horizonte","lat":-19.82083,"lon":-43.95083,"data":"17/08/1999","nova":false},{"operadora":"Vivo","tecnologia":"4G","municipio":"Belo Horizonte","lat":-19.82083,"lon":-43.95083,"data":"17/08/1999","nova":false},{"operadora":"Vivo","tecnologia":"2G","municipio":"Belo Horizonte","lat":-19.93639,"lon":-43.95194,"data":"17/08/1999","nova":false},{"operadora":"Vivo","tecnologia":"4G","municipio":"Belo Horizonte","lat":-19.93639,"lon":-43.95194,"data":"17/08/1999","nova":false},{"operadora":"Vivo","tecnologia":"3G","municipio":"Belo Horizonte","lat":-19.93639,"lon":-43.95194,"data":"17/08/1999","nova":false},{"operadora":"Vivo","tecnologia":"3G","municipio":"Belo Horizonte","lat":-19.90139,"lon":-43.96611,"data":"17/08/1999","nova":false},{"operadora":"Vivo","tecnologia":"2G","municipio":"Belo Horizonte","lat":-19.90139,"lon":-43.96611,"data":"17/08/1999","nova":false},{"operadora":"Vivo","tecnologia":"4G","municipio":"Belo Horizonte","lat":-19.90139,"lon":-43.96611,"data":"17/08/1999","nova":false},{"operadora":"Vivo","tecnologia":"3G","municipio":"Belo Horizonte","lat":-19.91333,"lon":-43.97194,"data":"17/08/1999","nova":false},{"operadora":"Vivo","tecnologia":"2G","municipio":"Belo Horizonte","lat":-19.91333,"lon":-43.97194,"data":"17/08/1999","nova":false},{"operadora":"Vivo","tecnologia":"4G","municipio":"Belo Horizonte","lat":-19.91333,"lon":-43.97194,"data":"17/08/1999","nova":false},{"operadora":"Vivo","tecnologia":"3G","municipio":"Belo Horizonte","lat":-19.91917,"lon":-43.96417,"data":"17/08/1999","nova":false},{"operadora":"Vivo","tecnologia":"4G","municipio":"Belo Horizonte","lat":-19.91917,"lon":-43.96417,"data":"17/08/1999","nova":false},{"operadora":"Vivo","tecnologia":"2G","municipio":"Belo Horizonte","lat":-19.91917,"lon":-43.96417,"data":"17/08/1999","nova":false},{"operadora":"Vivo","tecnologia":"2G","municipio":"Belo Horizonte","lat":-19.87515,"lon":-43.93678,"data":"17/08/1999","nova":false},{"operadora":"Vivo","tecnologia":"3G","municipio":"Belo Horizonte","lat":-19.87515,"lon":-43.93678,"data":"17/08/1999","nova":false},{"operadora":"Vivo","tecnologia":"4G","municipio":"Belo Horizonte","lat":-19.87515,"lon":-43.93678,"data":"17/08/1999","nova":false},{"operadora":"Vivo","tecnologia":"4G","municipio":"Brumadinho","lat":-20.194281,"lon":-43.97915,"data":"17/08/1999","nova":false},{"operadora":"Vivo","tecnologia":"3G","municipio":"Brumadinho","lat":-20.194281,"lon":-43.97915,"data":"17/08/1999","nova":false},{"operadora":"Vivo","tecnologia":"2G","municipio":"Brumadinho","lat":-20.194281,"lon":-43.97915,"data":"17/08/1999","nova":false},{"operadora":"Vivo","tecnologia":"3G","municipio":"Belo Horizonte","lat":-19.92222,"lon":-43.94028,"data":"17/08/1999","nova":false},{"operadora":"Vivo","tecnologia":"4G","municipio":"Belo Horizonte","lat":-19.92222,"lon":-43.94028,"data":"17/08/1999","nova":false},{"operadora":"Vivo","tecnologia":"2G","municipio":"Belo Horizonte","lat":-19.92222,"lon":-43.94028,"data":"17/08/1999","nova":false},{"operadora":"Vivo","tecnologia":"3G","municipio":"Passos","lat":-20.731006,"lon":-46.602135,"data":"17/08/1999","nova":false},{"operadora":"Vivo","tecnologia":"2G","municipio":"Passos","lat":-20.731006,"lon":-46.602135,"data":"17/08/1999","nova":false},{"operadora":"Vivo","tecnologia":"3G","municipio":"Lavras","lat":-21.25417,"lon":-45.00389,"data":"17/08/1999","nova":false},{"operadora":"Vivo","tecnologia":"2G","municipio":"Lavras","lat":-21.25417,"lon":-45.00389,"data":"17/08/1999","nova":false},{"operadora":"Vivo","tecnologia":"4G","municipio":"Lavras","lat":-21.25417,"lon":-45.00389,"data":"17/08/1999","nova":false},{"operadora":"Vivo","tecnologia":"3G","municipio":"Pirapora","lat":-17.348494,"lon":-44.945296,"data":"17/08/1999","nova":false},{"operadora":"Vivo","tecnologia":"4G","municipio":"Pirapora","lat":-17.348494,"lon":-44.945296,"data":"17/08/1999","nova":false},{"operadora":"Vivo","tecnologia":"2G","municipio":"Pirapora","lat":-17.348494,"lon":-44.945296,"data":"17/08/1999","nova":false},{"operadora":"Vivo","tecnologia":"4G","municipio":"Contagem","lat":-19.94389,"lon":-44.04056,"data":"17/08/1999","nova":false},{"operadora":"Vivo","tecnologia":"3G","municipio":"Contagem","lat":-19.94389,"lon":-44.04056,"data":"17/08/1999","nova":false},{"operadora":"Vivo","tecnologia":"2G","municipio":"Contagem","lat":-19.94389,"lon":-44.04056,"data":"17/08/1999","nova":false},{"operadora":"Vivo","tecnologia":"2G","municipio":"Alfenas","lat":-21.42806,"lon":-45.94556,"data":"17/08/1999","nova":false},{"operadora":"Vivo","tecnologia":"3G","municipio":"Santa Rita do Sapucaí","lat":-22.24333,"lon":-45.69806,"data":"17/08/1999","nova":false},{"operadora":"Vivo","tecnologia":"2G","municipio":"Santa Rita do Sapucaí","lat":-22.24333,"lon":-45.69806,"data":"17/08/1999","nova":false},{"operadora":"Vivo","tecnologia":"3G","municipio":"Belo Horizonte","lat":-19.87472,"lon":-43.92556,"data":"17/08/1999","nova":false},{"operadora":"Vivo","tecnologia":"4G","municipio":"Belo Horizonte","lat":-19.87472,"lon":-43.92556,"data":"17/08/1999","nova":false},{"operadora":"Vivo","tecnologia":"2G","municipio":"Belo Horizonte","lat":-19.87472,"lon":-43.92556,"data":"17/08/1999","nova":false},{"operadora":"Vivo","tecnologia":"3G","municipio":"Belo Horizonte","lat":-19.89,"lon":-43.96889,"data":"17/08/1999","nova":false},{"operadora":"Vivo","tecnologia":"2G","municipio":"Belo Horizonte","lat":-19.89,"lon":-43.96889,"data":"17/08/1999","nova":false},{"operadora":"Vivo","tecnologia":"4G","municipio":"Belo Horizonte","lat":-19.89,"lon":-43.96889,"data":"17/08/1999","nova":false},{"operadora":"Vivo","tecnologia":"2G","municipio":"Camanducaia","lat":-22.75835,"lon":-46.13797,"data":"12/03/1999","nova":false},{"operadora":"Vivo","tecnologia":"3G","municipio":"Januária","lat":-15.48828,"lon":-44.36196,"data":"12/03/1999","nova":false},{"operadora":"Vivo","tecnologia":"4G","municipio":"Januária","lat":-15.48828,"lon":-44.36196,"data":"12/03/1999","nova":false},{"operadora":"Vivo","tecnologia":"2G","municipio":"Januária","lat":-15.48828,"lon":-44.36196,"data":"12/03/1999","nova":false},{"operadora":"Vivo","tecnologia":"3G","municipio":"Várzea da Palma","lat":-17.61222,"lon":-44.74083,"data":"12/03/1999","nova":false},{"operadora":"Vivo","tecnologia":"2G","municipio":"Várzea da Palma","lat":-17.61222,"lon":-44.74083,"data":"12/03/1999","nova":false},{"operadora":"Vivo","tecnologia":"4G","municipio":"Várzea da Palma","lat":-17.61222,"lon":-44.74083,"data":"12/03/1999","nova":false},{"operadora":"Vivo","tecnologia":"4G","municipio":"Matozinhos","lat":-19.55889,"lon":-44.08083,"data":"12/03/1999","nova":false},{"operadora":"Vivo","tecnologia":"3G","municipio":"Matozinhos","lat":-19.55889,"lon":-44.08083,"data":"12/03/1999","nova":false},{"operadora":"Vivo","tecnologia":"2G","municipio":"Matozinhos","lat":-19.55889,"lon":-44.08083,"data":"12/03/1999","nova":false},{"operadora":"Vivo","tecnologia":"2G","municipio":"São João Nepomuceno","lat":-21.54556,"lon":-42.97417,"data":"12/03/1999","nova":false},{"operadora":"Vivo","tecnologia":"3G","municipio":"Juiz de Fora","lat":-21.75139,"lon":-43.34222,"data":"23/12/2003","nova":false},{"operadora":"Vivo","tecnologia":"2G","municipio":"Juiz de Fora","lat":-21.75139,"lon":-43.34222,"data":"23/12/2003","nova":false},{"operadora":"Vivo","tecnologia":"4G","municipio":"Juiz de Fora","lat":-21.75139,"lon":-43.34222,"data":"23/12/2003","nova":false},{"operadora":"Vivo","tecnologia":"3G","municipio":"Barroso","lat":-21.1975,"lon":-43.9625,"data":"17/08/1999","nova":false},{"operadora":"Vivo","tecnologia":"2G","municipio":"Barroso","lat":-21.1975,"lon":-43.9625,"data":"17/08/1999","nova":false},{"operadora":"Vivo","tecnologia":"4G","municipio":"Belo Horizonte","lat":-19.92778,"lon":-43.9475,"data":"17/08/1999","nova":false},{"operadora":"Vivo","tecnologia":"3G","municipio":"Belo Horizonte","lat":-19.92778,"lon":-43.9475,"data":"17/08/1999","nova":false},{"operadora":"Vivo","tecnologia":"2G","municipio":"Belo Horizonte","lat":-19.92778,"lon":-43.9475,"data":"17/08/1999","nova":false},{"operadora":"Vivo","tecnologia":"4G","municipio":"Belo Horizonte","lat":-19.93972,"lon":-43.92667,"data":"17/08/1999","nova":false},{"operadora":"Vivo","tecnologia":"2G","municipio":"Belo Horizonte","lat":-19.93972,"lon":-43.92667,"data":"17/08/1999","nova":false},{"operadora":"Vivo","tecnologia":"4G","municipio":"Belo Horizonte","lat":-19.92,"lon":-43.94,"data":"17/08/1999","nova":false},{"operadora":"Vivo","tecnologia":"2G","municipio":"Belo Horizonte","lat":-19.92,"lon":-43.94,"data":"17/08/1999","nova":false},{"operadora":"Vivo","tecnologia":"4G","municipio":"Belo Horizonte","lat":-19.91122,"lon":-43.97,"data":"01/01/1999","nova":false},{"operadora":"Vivo","tecnologia":"3G","municipio":"Belo Horizonte","lat":-19.91122,"lon":-43.97,"data":"01/01/1999","nova":false},{"operadora":"Vivo","tecnologia":"2G","municipio":"Belo Horizonte","lat":-19.91122,"lon":-43.97,"data":"01/01/1999","nova":false},{"operadora":"Vivo","tecnologia":"4G","municipio":"Belo Horizonte","lat":-19.88167,"lon":-43.925,"data":"01/01/1999","nova":false},{"operadora":"Vivo","tecnologia":"2G","municipio":"Belo Horizonte","lat":-19.88167,"lon":-43.925,"data":"01/01/1999","nova":false},{"operadora":"Vivo","tecnologia":"2G","municipio":"Belo Horizonte","lat":-19.87278,"lon":-43.9825,"data":"17/08/1999","nova":false},{"operadora":"Vivo","tecnologia":"3G","municipio":"Belo Horizonte","lat":-19.87278,"lon":-43.9825,"data":"17/08/1999","nova":false},{"operadora":"Vivo","tecnologia":"4G","municipio":"Belo Horizonte","lat":-19.87278,"lon":-43.9825,"data":"17/08/1999","nova":false},{"operadora":"Vivo","tecnologia":"2G","municipio":"Belo Horizonte","lat":-19.94528,"lon":-43.97361,"data":"17/08/1999","nova":false},{"operadora":"Vivo","tecnologia":"3G","municipio":"Belo Horizonte","lat":-19.94528,"lon":-43.97361,"data":"17/08/1999","nova":false},{"operadora":"Vivo","tecnologia":"4G","municipio":"Belo Horizonte","lat":-19.94528,"lon":-43.97361,"data":"17/08/1999","nova":false},{"operadora":"Vivo","tecnologia":"2G","municipio":"Brumadinho","lat":-20.093942,"lon":-43.983306,"data":"17/08/1999","nova":false},{"operadora":"Vivo","tecnologia":"3G","municipio":"Santa Luzia","lat":-19.78389,"lon":-43.87472,"data":"10/06/2021","nova":false},{"operadora":"Vivo","tecnologia":"4G","municipio":"Santa Luzia","lat":-19.78389,"lon":-43.87472,"data":"10/06/2021","nova":false},{"operadora":"Vivo","tecnologia":"2G","municipio":"Santa Luzia","lat":-19.78389,"lon":-43.87472,"data":"10/06/2021","nova":false},{"operadora":"Vivo","tecnologia":"3G","municipio":"Vespasiano","lat":-19.75528,"lon":-43.94306,"data":"15/06/2021","nova":false},{"operadora":"Vivo","tecnologia":"4G","municipio":"Vespasiano","lat":-19.75528,"lon":-43.94306,"data":"15/06/2021","nova":false},{"operadora":"Vivo","tecnologia":"2G","municipio":"Vespasiano","lat":-19.75528,"lon":-43.94306,"data":"15/06/2021","nova":false},{"operadora":"Vivo","tecnologia":"2G","municipio":"Lagoa Santa","lat":-19.66556,"lon":-43.93056,"data":"17/08/1999","nova":false},{"operadora":"Vivo","tecnologia":"3G","municipio":"Lagoa Santa","lat":-19.66556,"lon":-43.93056,"data":"17/08/1999","nova":false},{"operadora":"Vivo","tecnologia":"3G","municipio":"Araguari","lat":-18.62889,"lon":-48.19833,"data":"17/08/1999","nova":false},{"operadora":"Vivo","tecnologia":"2G","municipio":"Araguari","lat":-18.62889,"lon":-48.19833,"data":"17/08/1999","nova":false},{"operadora":"Vivo","tecnologia":"3G","municipio":"Ipatinga","lat":-19.49722,"lon":-42.58056,"data":"17/08/1999","nova":false},{"operadora":"Vivo","tecnologia":"2G","municipio":"Ipatinga","lat":-19.49722,"lon":-42.58056,"data":"17/08/1999","nova":false},{"operadora":"Vivo","tecnologia":"3G","municipio":"Divinópolis","lat":-20.1475,"lon":-44.86278,"data":"17/08/1999","nova":false},{"operadora":"Vivo","tecnologia":"4G","municipio":"Divinópolis","lat":-20.1475,"lon":-44.86278,"data":"17/08/1999","nova":false},{"operadora":"Vivo","tecnologia":"2G","municipio":"Divinópolis","lat":-20.1475,"lon":-44.86278,"data":"17/08/1999","nova":false},{"operadora":"Vivo","tecnologia":"3G","municipio":"Montes Claros","lat":-16.7925,"lon":-43.85361,"data":"15/06/2021","nova":false},{"operadora":"Vivo","tecnologia":"2G","municipio":"Montes Claros","lat":-16.7925,"lon":-43.85361,"data":"15/06/2021","nova":false},{"operadora":"Vivo","tecnologia":"2G","municipio":"Poços de Caldas","lat":-21.77278,"lon":-46.57361,"data":"17/08/1999","nova":false},{"operadora":"Vivo","tecnologia":"3G","municipio":"Varginha","lat":-21.54611,"lon":-45.44472,"data":"01/01/1999","nova":false},{"operadora":"Vivo","tecnologia":"4G","municipio":"Varginha","lat":-21.54611,"lon":-45.44472,"data":"01/01/1999","nova":false},{"operadora":"Vivo","tecnologia":"2G","municipio":"Varginha","lat":-21.54611,"lon":-45.44472,"data":"01/01/1999","nova":false},{"operadora":"Vivo","tecnologia":"3G","municipio":"Confins","lat":-19.63222,"lon":-43.9625,"data":"17/08/1999","nova":false},{"operadora":"Vivo","tecnologia":"4G","municipio":"Confins","lat":-19.63222,"lon":-43.9625,"data":"17/08/1999","nova":false},{"operadora":"Vivo","tecnologia":"2G","municipio":"Confins","lat":-19.63222,"lon":-43.9625,"data":"17/08/1999","nova":false},{"operadora":"Vivo","tecnologia":"3G","municipio":"Belo Horizonte","lat":-19.92444,"lon":-43.97167,"data":"17/08/1999","nova":false},{"operadora":"Vivo","tecnologia":"2G","municipio":"Belo Horizonte","lat":-19.92444,"lon":-43.97167,"data":"17/08/1999","nova":false},{"operadora":"Vivo","tecnologia":"4G","municipio":"Belo Horizonte","lat":-19.92444,"lon":-43.97167,"data":"17/08/1999","nova":false},{"operadora":"Vivo","tecnologia":"2G","municipio":"Belo Horizonte","lat":-19.86361,"lon":-43.92861,"data":"15/06/2021","nova":false},{"operadora":"Vivo","tecnologia":"4G","municipio":"Belo Horizonte","lat":-19.86361,"lon":-43.92861,"data":"15/06/2021","nova":false},{"operadora":"Vivo","tecnologia":"3G","municipio":"Belo Horizonte","lat":-19.86361,"lon":-43.92861,"data":"15/06/2021","nova":false},{"operadora":"Vivo","tecnologia":"3G","municipio":"São Sebastião do Paraíso","lat":-20.92611,"lon":-46.975,"data":"17/08/1999","nova":false},{"operadora":"Vivo","tecnologia":"4G","municipio":"São Sebastião do Paraíso","lat":-20.92611,"lon":-46.975,"data":"17/08/1999","nova":false},{"operadora":"Vivo","tecnologia":"2G","municipio":"São Sebastião do Paraíso","lat":-20.92611,"lon":-46.975,"data":"17/08/1999","nova":false},{"operadora":"Vivo","tecnologia":"2G","municipio":"Jequitaí","lat":-17.18333,"lon":-44.37139,"data":"13/09/2021","nova":false},{"operadora":"Vivo","tecnologia":"3G","municipio":"Ouro Branco","lat":-20.52528,"lon":-43.70417,"data":"17/08/1999","nova":false},{"operadora":"Vivo","tecnologia":"2G","municipio":"Ouro Branco","lat":-20.52528,"lon":-43.70417,"data":"17/08/1999","nova":false},{"operadora":"Vivo","tecnologia":"2G","municipio":"Juiz de Fora","lat":-21.70917,"lon":-43.4125,"data":"09/07/2021","nova":false},{"operadora":"Vivo","tecnologia":"3G","municipio":"Santos Dumont","lat":-21.46167,"lon":-43.54556,"data":"01/01/1999","nova":false},{"operadora":"Vivo","tecnologia":"2G","municipio":"Santos Dumont","lat":-21.46167,"lon":-43.54556,"data":"01/01/1999","nova":false},{"operadora":"Vivo","tecnologia":"3G","municipio":"Santo Antônio do Monte","lat":-20.07167,"lon":-45.29472,"data":"17/08/1999","nova":false},{"operadora":"Vivo","tecnologia":"2G","municipio":"Santo Antônio do Monte","lat":-20.07167,"lon":-45.29472,"data":"17/08/1999","nova":false},{"operadora":"Vivo","tecnologia":"3G","municipio":"Corinto","lat":-18.3625,"lon":-44.45444,"data":"17/08/1999","nova":false},{"operadora":"Vivo","tecnologia":"4G","municipio":"Corinto","lat":-18.3625,"lon":-44.45444,"data":"17/08/1999","nova":false},{"operadora":"Vivo","tecnologia":"2G","municipio":"Corinto","lat":-18.3625,"lon":-44.45444,"data":"17/08/1999","nova":false},{"operadora":"Vivo","tecnologia":"3G","municipio":"Arcos","lat":-20.28944,"lon":-45.54167,"data":"17/08/1999","nova":false},{"operadora":"Vivo","tecnologia":"2G","municipio":"Arcos","lat":-20.28944,"lon":-45.54167,"data":"17/08/1999","nova":false},{"operadora":"Vivo","tecnologia":"3G","municipio":"Lagoa da Prata","lat":-20.02444,"lon":-45.54139,"data":"17/08/1999","nova":false},{"operadora":"Vivo","tecnologia":"2G","municipio":"Lagoa da Prata","lat":-20.02444,"lon":-45.54139,"data":"17/08/1999","nova":false},{"operadora":"Vivo","tecnologia":"3G","municipio":"Pedro Leopoldo","lat":-19.62111,"lon":-44.05222,"data":"01/01/1999","nova":false},{"operadora":"Vivo","tecnologia":"2G","municipio":"Pedro Leopoldo","lat":-19.62111,"lon":-44.05222,"data":"01/01/1999","nova":false},{"operadora":"Vivo","tecnologia":"4G","municipio":"Pedro Leopoldo","lat":-19.62111,"lon":-44.05222,"data":"01/01/1999","nova":false},{"operadora":"Vivo","tecnologia":"3G","municipio":"Sabará","lat":-19.89722,"lon":-43.80694,"data":"05/07/2021","nova":false},{"operadora":"Vivo","tecnologia":"2G","municipio":"Sabará","lat":-19.89722,"lon":-43.80694,"data":"05/07/2021","nova":false},{"operadora":"Vivo","tecnologia":"4G","municipio":"Betim","lat":-19.96944,"lon":-44.18806,"data":"17/08/1999","nova":false},{"operadora":"Vivo","tecnologia":"3G","municipio":"Betim","lat":-19.96944,"lon":-44.18806,"data":"17/08/1999","nova":false},{"operadora":"Vivo","tecnologia":"2G","municipio":"Betim","lat":-19.96944,"lon":-44.18806,"data":"17/08/1999","nova":false},{"operadora":"Vivo","tecnologia":"2G","municipio":"Belo Horizonte","lat":-19.92361,"lon":-43.93639,"data":"17/08/1999","nova":false},{"operadora":"Vivo","tecnologia":"4G","municipio":"Belo Horizonte","lat":-19.92361,"lon":-43.93639,"data":"17/08/1999","nova":false},{"operadora":"Vivo","tecnologia":"4G","municipio":"Belo Horizonte","lat":-19.795944,"lon":-43.948528,"data":"17/08/1999","nova":false},{"operadora":"Vivo","tecnologia":"3G","municipio":"Belo Horizonte","lat":-19.795944,"lon":-43.948528,"data":"17/08/1999","nova":false},{"operadora":"Vivo","tecnologia":"2G","municipio":"Belo Horizonte","lat":-19.795944,"lon":-43.948528,"data":"17/08/1999","nova":false},{"operadora":"Vivo","tecnologia":"3G","municipio":"Belo Horizonte","lat":-19.92194,"lon":-43.95083,"data":"17/08/1999","nova":false},{"operadora":"Vivo","tecnologia":"2G","municipio":"Belo Horizonte","lat":-19.92194,"lon":-43.95083,"data":"17/08/1999","nova":false},{"operadora":"Vivo","tecnologia":"3G","municipio":"Três Marias","lat":-18.21314,"lon":-45.22325,"data":"01/01/1999","nova":false},{"operadora":"Vivo","tecnologia":"4G","municipio":"Três Marias","lat":-18.21314,"lon":-45.22325,"data":"01/01/1999","nova":false},{"operadora":"Vivo","tecnologia":"2G","municipio":"Três Marias","lat":-18.21314,"lon":-45.22325,"data":"01/01/1999","nova":false},{"operadora":"Vivo","tecnologia":"3G","municipio":"Tiradentes","lat":-21.11875,"lon":-44.164778,"data":"17/08/1999","nova":false},{"operadora":"Vivo","tecnologia":"2G","municipio":"Tiradentes","lat":-21.11875,"lon":-44.164778,"data":"17/08/1999","nova":false},{"operadora":"Vivo","tecnologia":"4G","municipio":"Montes Claros","lat":-16.70111,"lon":-43.87472,"data":"17/08/1999","nova":false},{"operadora":"Vivo","tecnologia":"2G","municipio":"Montes Claros","lat":-16.70111,"lon":-43.87472,"data":"17/08/1999","nova":false},{"operadora":"Vivo","tecnologia":"3G","municipio":"Montes Claros","lat":-16.70111,"lon":-43.87472,"data":"17/08/1999","nova":false},{"operadora":"Vivo","tecnologia":"3G","municipio":"Bocaiúva","lat":-17.11222,"lon":-43.81361,"data":"17/08/1999","nova":false},{"operadora":"Vivo","tecnologia":"4G","municipio":"Bocaiúva","lat":-17.11222,"lon":-43.81361,"data":"17/08/1999","nova":false},{"operadora":"Vivo","tecnologia":"2G","municipio":"Bocaiúva","lat":-17.11222,"lon":-43.81361,"data":"17/08/1999","nova":false},{"operadora":"Vivo","tecnologia":"3G","municipio":"Piumhi","lat":-20.44083,"lon":-45.9,"data":"10/06/2021","nova":false},{"operadora":"Vivo","tecnologia":"2G","municipio":"Piumhi","lat":-20.44083,"lon":-45.9,"data":"10/06/2021","nova":false},{"operadora":"Vivo","tecnologia":"3G","municipio":"Diamantina","lat":-18.21833,"lon":-43.59111,"data":"17/08/1999","nova":false},{"operadora":"Vivo","tecnologia":"2G","municipio":"Diamantina","lat":-18.21833,"lon":-43.59111,"data":"17/08/1999","nova":false},{"operadora":"Vivo","tecnologia":"3G","municipio":"Rio Pomba","lat":-21.26972,"lon":-43.17139,"data":"17/08/1999","nova":false},{"operadora":"Vivo","tecnologia":"2G","municipio":"Rio Pomba","lat":-21.26972,"lon":-43.17139,"data":"17/08/1999","nova":false},{"operadora":"Vivo","tecnologia":"3G","municipio":"Esmeraldas","lat":-19.75667,"lon":-44.31,"data":"01/01/1999","nova":false},{"operadora":"Vivo","tecnologia":"4G","municipio":"Esmeraldas","lat":-19.75667,"lon":-44.31,"data":"01/01/1999","nova":false},{"operadora":"Vivo","tecnologia":"2G","municipio":"Esmeraldas","lat":-19.75667,"lon":-44.31,"data":"01/01/1999","nova":false},{"operadora":"Vivo","tecnologia":"3G","municipio":"Ribeirão das Neves","lat":-19.77047,"lon":-44.145,"data":"01/01/1999","nova":false},{"operadora":"Vivo","tecnologia":"2G","municipio":"Ribeirão das Neves","lat":-19.77047,"lon":-44.145,"data":"01/01/1999","nova":false},{"operadora":"Vivo","tecnologia":"3G","municipio":"Caeté","lat":-19.88389,"lon":-43.67778,"data":"17/08/1999","nova":false},{"operadora":"Vivo","tecnologia":"2G","municipio":"Caeté","lat":-19.88389,"lon":-43.67778,"data":"17/08/1999","nova":false},{"operadora":"Vivo","tecnologia":"3G","municipio":"Belo Horizonte","lat":-19.887389,"lon":-43.905581,"data":"01/01/1999","nova":false},{"operadora":"Vivo","tecnologia":"4G","municipio":"Belo Horizonte","lat":-19.887389,"lon":-43.905581,"data":"01/01/1999","nova":false},{"operadora":"Vivo","tecnologia":"2G","municipio":"Belo Horizonte","lat":-19.887389,"lon":-43.905581,"data":"01/01/1999","nova":false},{"operadora":"Vivo","tecnologia":"3G","municipio":"Belo Horizonte","lat":-19.95528,"lon":-43.95861,"data":"17/08/1999","nova":false},{"operadora":"Vivo","tecnologia":"2G","municipio":"Belo Horizonte","lat":-19.95528,"lon":-43.95861,"data":"17/08/1999","nova":false},{"operadora":"Vivo","tecnologia":"4G","municipio":"Belo Horizonte","lat":-19.95528,"lon":-43.95861,"data":"17/08/1999","nova":false},{"operadora":"Vivo","tecnologia":"3G","municipio":"Belo Horizonte","lat":-19.94905,"lon":-43.960989,"data":"01/01/1999","nova":false},{"operadora":"Vivo","tecnologia":"4G","municipio":"Belo Horizonte","lat":-19.94905,"lon":-43.960989,"data":"01/01/1999","nova":false},{"operadora":"Vivo","tecnologia":"2G","municipio":"Belo Horizonte","lat":-19.94905,"lon":-43.960989,"data":"01/01/1999","nova":false},{"operadora":"Vivo","tecnologia":"4G","municipio":"Belo Horizonte","lat":-19.95944,"lon":-43.9575,"data":"17/08/1999","nova":false},{"operadora":"Vivo","tecnologia":"3G","municipio":"Belo Horizonte","lat":-19.95944,"lon":-43.9575,"data":"17/08/1999","nova":false},{"operadora":"Vivo","tecnologia":"3G","municipio":"Belo Horizonte","lat":-19.847556,"lon":-43.890719,"data":"17/08/1999","nova":false},{"operadora":"Vivo","tecnologia":"4G","municipio":"Belo Horizonte","lat":-19.847556,"lon":-43.890719,"data":"17/08/1999","nova":false},{"operadora":"Vivo","tecnologia":"2G","municipio":"Belo Horizonte","lat":-19.847556,"lon":-43.890719,"data":"17/08/1999","nova":false},{"operadora":"Vivo","tecnologia":"3G","municipio":"Sabará","lat":-19.87889,"lon":-43.86361,"data":"15/06/2021","nova":false},{"operadora":"Vivo","tecnologia":"2G","municipio":"Sabará","lat":-19.87889,"lon":-43.86361,"data":"15/06/2021","nova":false},{"operadora":"Vivo","tecnologia":"3G","municipio":"Belo Horizonte","lat":-19.9875,"lon":-43.99694,"data":"01/01/1999","nova":false},{"operadora":"Vivo","tecnologia":"2G","municipio":"Belo Horizonte","lat":-19.9875,"lon":-43.99694,"data":"01/01/1999","nova":false},{"operadora":"Vivo","tecnologia":"4G","municipio":"Belo Horizonte","lat":-19.9875,"lon":-43.99694,"data":"01/01/1999","nova":false},{"operadora":"Vivo","tecnologia":"3G","municipio":"Ribeirão das Neves","lat":-19.80528,"lon":-44.00111,"data":"17/08/1999","nova":false},{"operadora":"Vivo","tecnologia":"4G","municipio":"Ribeirão das Neves","lat":-19.80528,"lon":-44.00111,"data":"17/08/1999","nova":false},{"operadora":"Vivo","tecnologia":"2G","municipio":"Ribeirão das Neves","lat":-19.80528,"lon":-44.00111,"data":"17/08/1999","nova":false},{"operadora":"Vivo","tecnologia":"3G","municipio":"Ouro Fino","lat":-22.28694,"lon":-46.36639,"data":"17/08/1999","nova":false},{"operadora":"Vivo","tecnologia":"4G","municipio":"Ouro Fino","lat":-22.28694,"lon":-46.36639,"data":"17/08/1999","nova":false},{"operadora":"Vivo","tecnologia":"2G","municipio":"Ouro Fino","lat":-22.28694,"lon":-46.36639,"data":"17/08/1999","nova":false},{"operadora":"Vivo","tecnologia":"2G","municipio":"Sete Lagoas","lat":-19.45833,"lon":-44.23806,"data":"01/01/1999","nova":false},{"operadora":"Vivo","tecnologia":"4G","municipio":"Sete Lagoas","lat":-19.45833,"lon":-44.23806,"data":"01/01/1999","nova":false},{"operadora":"Vivo","tecnologia":"3G","municipio":"Sete Lagoas","lat":-19.45833,"lon":-44.23806,"data":"01/01/1999","nova":false},{"operadora":"Vivo","tecnologia":"4G","municipio":"Poços de Caldas","lat":-21.81944,"lon":-46.56694,"data":"01/01/1999","nova":false},{"operadora":"Vivo","tecnologia":"2G","municipio":"Poços de Caldas","lat":-21.81944,"lon":-46.56694,"data":"01/01/1999","nova":false},{"operadora":"Vivo","tecnologia":"3G","municipio":"Poços de Caldas","lat":-21.81944,"lon":-46.56694,"data":"01/01/1999","nova":false},{"operadora":"Vivo","tecnologia":"4G","municipio":"Ibiá","lat":-19.49361,"lon":-46.54806,"data":"15/06/2021","nova":false},{"operadora":"Vivo","tecnologia":"3G","municipio":"Ibiá","lat":-19.49361,"lon":-46.54806,"data":"15/06/2021","nova":false},{"operadora":"Vivo","tecnologia":"2G","municipio":"Ibiá","lat":-19.49361,"lon":-46.54806,"data":"15/06/2021","nova":false},{"operadora":"Vivo","tecnologia":"2G","municipio":"Nova Porteirinha","lat":-15.78806,"lon":-43.24694,"data":"17/08/1999","nova":false},{"operadora":"Vivo","tecnologia":"3G","municipio":"Pompéu","lat":-19.20278,"lon":-44.99889,"data":"17/08/1999","nova":false},{"operadora":"Vivo","tecnologia":"2G","municipio":"Pompéu","lat":-19.20278,"lon":-44.99889,"data":"17/08/1999","nova":false},{"operadora":"Vivo","tecnologia":"2G","municipio":"Manhumirim","lat":-20.36306,"lon":-41.96917,"data":"17/08/1999","nova":false},{"operadora":"Vivo","tecnologia":"3G","municipio":"Manhumirim","lat":-20.36306,"lon":-41.96917,"data":"17/08/1999","nova":false},{"operadora":"Vivo","tecnologia":"3G","municipio":"Mateus Leme","lat":-19.957028,"lon":-44.42555,"data":"17/08/1999","nova":false},{"operadora":"Vivo","tecnologia":"2G","municipio":"Mateus Leme","lat":-19.957028,"lon":-44.42555,"data":"17/08/1999","nova":false},{"operadora":"Vivo","tecnologia":"3G","municipio":"Salinas","lat":-16.15806,"lon":-42.26472,"data":"17/08/1999","nova":false},{"operadora":"Vivo","tecnologia":"4G","municipio":"Salinas","lat":-16.15806,"lon":-42.26472,"data":"17/08/1999","nova":false},{"operadora":"Vivo","tecnologia":"2G","municipio":"Salinas","lat":-16.15806,"lon":-42.26472,"data":"17/08/1999","nova":false},{"operadora":"Vivo","tecnologia":"2G","municipio":"Três Pontas","lat":-21.40611,"lon":-45.49472,"data":"15/06/2021","nova":false},{"operadora":"Vivo","tecnologia":"3G","municipio":"Três Pontas","lat":-21.40611,"lon":-45.49472,"data":"15/06/2021","nova":false},{"operadora":"Vivo","tecnologia":"2G","municipio":"Caxambu","lat":-21.97944,"lon":-44.94083,"data":"10/06/2021","nova":false},{"operadora":"Vivo","tecnologia":"3G","municipio":"Campo Belo","lat":-20.90056,"lon":-45.28528,"data":"17/08/1999","nova":false},{"operadora":"Vivo","tecnologia":"2G","municipio":"Campo Belo","lat":-20.90056,"lon":-45.28528,"data":"17/08/1999","nova":false},{"operadora":"Vivo","tecnologia":"3G","municipio":"Cláudio","lat":-20.47222,"lon":-44.765,"data":"17/08/1999","nova":false},{"operadora":"Vivo","tecnologia":"2G","municipio":"Cláudio","lat":-20.47222,"lon":-44.765,"data":"17/08/1999","nova":false},{"operadora":"Vivo","tecnologia":"3G","municipio":"Juiz de Fora","lat":-21.63194,"lon":-43.45278,"data":"17/08/1999","nova":false},{"operadora":"Vivo","tecnologia":"4G","municipio":"Juiz de Fora","lat":-21.63194,"lon":-43.45278,"data":"17/08/1999","nova":false},{"operadora":"Vivo","tecnologia":"2G","municipio":"Juiz de Fora","lat":-21.63194,"lon":-43.45278,"data":"17/08/1999","nova":false},{"operadora":"Vivo","tecnologia":"4G","municipio":"Boa Esperança","lat":-21.09444,"lon":-45.56167,"data":"17/08/1999","nova":false},{"operadora":"Vivo","tecnologia":"3G","municipio":"Boa Esperança","lat":-21.09444,"lon":-45.56167,"data":"17/08/1999","nova":false},{"operadora":"Vivo","tecnologia":"2G","municipio":"Boa Esperança","lat":-21.09444,"lon":-45.56167,"data":"17/08/1999","nova":false},{"operadora":"Vivo","tecnologia":"4G","municipio":"Belo Horizonte","lat":-19.95855,"lon":-43.93811,"data":"01/01/1999","nova":false},{"operadora":"Vivo","tecnologia":"2G","municipio":"Belo Horizonte","lat":-19.95855,"lon":-43.93811,"data":"01/01/1999","nova":false},{"operadora":"Vivo","tecnologia":"3G","municipio":"Belo Horizonte","lat":-19.95855,"lon":-43.93811,"data":"01/01/1999","nova":false},{"operadora":"Vivo","tecnologia":"2G","municipio":"Capitólio","lat":-20.65722,"lon":-46.03083,"data":"17/08/1999","nova":false},{"operadora":"Vivo","tecnologia":"3G","municipio":"Capitólio","lat":-20.65722,"lon":-46.03083,"data":"17/08/1999","nova":false},{"operadora":"Vivo","tecnologia":"2G","municipio":"Taiobeiras","lat":-15.80056,"lon":-42.26139,"data":"17/08/1999","nova":false},{"operadora":"Vivo","tecnologia":"4G","municipio":"Sacramento","lat":-19.87928,"lon":-47.44283,"data":"01/01/1999","nova":false},{"operadora":"Vivo","tecnologia":"2G","municipio":"Sacramento","lat":-19.87928,"lon":-47.44283,"data":"01/01/1999","nova":false},{"operadora":"Vivo","tecnologia":"3G","municipio":"Sacramento","lat":-19.87928,"lon":-47.44283,"data":"01/01/1999","nova":false},{"operadora":"Vivo","tecnologia":"3G","municipio":"Belo Horizonte","lat":-19.93528,"lon":-43.95861,"data":"17/08/1999","nova":false},{"operadora":"Vivo","tecnologia":"2G","municipio":"Belo Horizonte","lat":-19.93528,"lon":-43.95861,"data":"17/08/1999","nova":false},{"operadora":"Vivo","tecnologia":"4G","municipio":"Belo Horizonte","lat":-19.93528,"lon":-43.95861,"data":"17/08/1999","nova":false},{"operadora":"Vivo","tecnologia":"3G","municipio":"Belo Horizonte","lat":-19.96444,"lon":-43.94028,"data":"17/08/1999","nova":false},{"operadora":"Vivo","tecnologia":"4G","municipio":"Belo Horizonte","lat":-19.96444,"lon":-43.94028,"data":"17/08/1999","nova":false},{"operadora":"Vivo","tecnologia":"2G","municipio":"Belo Horizonte","lat":-19.96444,"lon":-43.94028,"data":"17/08/1999","nova":false},{"operadora":"Vivo","tecnologia":"3G","municipio":"Betim","lat":-19.96278,"lon":-44.10167,"data":"01/01/1999","nova":false},{"operadora":"Vivo","tecnologia":"4G","municipio":"Betim","lat":-19.96278,"lon":-44.10167,"data":"01/01/1999","nova":false},{"operadora":"Vivo","tecnologia":"2G","municipio":"Betim","lat":-19.96278,"lon":-44.10167,"data":"01/01/1999","nova":false},{"operadora":"Vivo","tecnologia":"3G","municipio":"Itacarambi","lat":-15.10056,"lon":-44.09417,"data":"17/08/1999","nova":false},{"operadora":"Vivo","tecnologia":"2G","municipio":"Itacarambi","lat":-15.10056,"lon":-44.09417,"data":"17/08/1999","nova":false},{"operadora":"Vivo","tecnologia":"2G","municipio":"Nepomuceno","lat":-21.20867,"lon":-45.19733,"data":"12/03/1999","nova":false},{"operadora":"Vivo","tecnologia":"2G","municipio":"Cambuí","lat":-22.62167,"lon":-46.06167,"data":"12/03/1999","nova":false},{"operadora":"Vivo","tecnologia":"3G","municipio":"Poços de Caldas","lat":-21.78417,"lon":-46.5675,"data":"12/03/1999","nova":false},{"operadora":"Vivo","tecnologia":"4G","municipio":"Poços de Caldas","lat":-21.78417,"lon":-46.5675,"data":"12/03/1999","nova":false},{"operadora":"Vivo","tecnologia":"2G","municipio":"Poços de Caldas","lat":-21.78417,"lon":-46.5675,"data":"12/03/1999","nova":false},{"operadora":"Vivo","tecnologia":"3G","municipio":"Monte Carmelo","lat":-18.77889,"lon":-47.47972,"data":"17/08/1999","nova":false},{"operadora":"Vivo","tecnologia":"2G","municipio":"Monte Carmelo","lat":-18.77889,"lon":-47.47972,"data":"17/08/1999","nova":false},{"operadora":"Vivo","tecnologia":"2G","municipio":"Ouro Preto","lat":-20.43056,"lon":-43.79222,"data":"12/03/1999","nova":false},{"operadora":"Vivo","tecnologia":"3G","municipio":"Cristiano Otoni","lat":-20.83333,"lon":-43.79889,"data":"12/03/1999","nova":false},{"operadora":"Vivo","tecnologia":"2G","municipio":"Cristiano Otoni","lat":-20.83333,"lon":-43.79889,"data":"12/03/1999","nova":false},{"operadora":"Vivo","tecnologia":"3G","municipio":"Extrema","lat":-22.80944,"lon":-46.26667,"data":"05/02/2001","nova":false},{"operadora":"Vivo","tecnologia":"2G","municipio":"Extrema","lat":-22.80944,"lon":-46.26667,"data":"05/02/2001","nova":false},{"operadora":"Vivo","tecnologia":"3G","municipio":"Itaú de Minas","lat":-20.72556,"lon":-46.74278,"data":"12/03/1999","nova":false},{"operadora":"Vivo","tecnologia":"2G","municipio":"Itaú de Minas","lat":-20.72556,"lon":-46.74278,"data":"12/03/1999","nova":false},{"operadora":"Vivo","tecnologia":"3G","municipio":"Timóteo","lat":-19.57389,"lon":-42.63944,"data":"17/08/1999","nova":false},{"operadora":"Vivo","tecnologia":"4G","municipio":"Timóteo","lat":-19.57389,"lon":-42.63944,"data":"17/08/1999","nova":false},{"operadora":"Vivo","tecnologia":"2G","municipio":"Timóteo","lat":-19.57389,"lon":-42.63944,"data":"17/08/1999","nova":false},{"operadora":"Vivo","tecnologia":"3G","municipio":"Carangola","lat":-20.74361,"lon":-42.05889,"data":"12/03/1999","nova":false},{"operadora":"Vivo","tecnologia":"2G","municipio":"Carangola","lat":-20.74361,"lon":-42.05889,"data":"12/03/1999","nova":false},{"operadora":"Vivo","tecnologia":"3G","municipio":"Governador Valadares","lat":-18.86167,"lon":-41.96944,"data":"12/03/1999","nova":false},{"operadora":"Vivo","tecnologia":"2G","municipio":"Governador Valadares","lat":-18.86167,"lon":-41.96944,"data":"12/03/1999","nova":false},{"operadora":"Vivo","tecnologia":"3G","municipio":"Carandaí","lat":-20.95667,"lon":-43.81,"data":"21/05/2001","nova":false},{"operadora":"Vivo","tecnologia":"2G","municipio":"Carandaí","lat":-20.95667,"lon":-43.81,"data":"21/05/2001","nova":false},{"operadora":"Vivo","tecnologia":"4G","municipio":"Vespasiano","lat":-19.70667,"lon":-43.92139,"data":"09/07/2021","nova":false},{"operadora":"Vivo","tecnologia":"3G","municipio":"Vespasiano","lat":-19.70667,"lon":-43.92139,"data":"09/07/2021","nova":false},{"operadora":"Vivo","tecnologia":"2G","municipio":"Vespasiano","lat":-19.70667,"lon":-43.92139,"data":"09/07/2021","nova":false},{"operadora":"Vivo","tecnologia":"4G","municipio":"Belo Horizonte","lat":-19.88583,"lon":-43.98111,"data":"12/03/1999","nova":false},{"operadora":"Vivo","tecnologia":"3G","municipio":"Belo Horizonte","lat":-19.88583,"lon":-43.98111,"data":"12/03/1999","nova":false},{"operadora":"Vivo","tecnologia":"2G","municipio":"Belo Horizonte","lat":-19.88583,"lon":-43.98111,"data":"12/03/1999","nova":false},{"operadora":"Vivo","tecnologia":"4G","municipio":"Belo Horizonte","lat":-19.91139,"lon":-43.95583,"data":"12/03/1999","nova":false},{"operadora":"Vivo","tecnologia":"3G","municipio":"Belo Horizonte","lat":-19.91139,"lon":-43.95583,"data":"12/03/1999","nova":false},{"operadora":"Vivo","tecnologia":"2G","municipio":"Belo Horizonte","lat":-19.91139,"lon":-43.95583,"data":"12/03/1999","nova":false},{"operadora":"Vivo","tecnologia":"4G","municipio":"Santa Luzia","lat":-19.77861,"lon":-43.92028,"data":"12/03/1999","nova":false},{"operadora":"Vivo","tecnologia":"4G","municipio":"Belo Horizonte","lat":-19.92944,"lon":-43.93667,"data":"12/03/1999","nova":false},{"operadora":"Vivo","tecnologia":"3G","municipio":"Belo Horizonte","lat":-19.92944,"lon":-43.93667,"data":"12/03/1999","nova":false},{"operadora":"Vivo","tecnologia":"2G","municipio":"Belo Horizonte","lat":-19.92944,"lon":-43.93667,"data":"12/03/1999","nova":false},{"operadora":"Vivo","tecnologia":"3G","municipio":"Cambuquira","lat":-21.87269,"lon":-45.28419,"data":"12/03/1999","nova":false},{"operadora":"Vivo","tecnologia":"2G","municipio":"Cambuquira","lat":-21.87269,"lon":-45.28419,"data":"12/03/1999","nova":false},{"operadora":"Vivo","tecnologia":"3G","municipio":"Betim","lat":-19.96306,"lon":-44.07222,"data":"12/03/1999","nova":false},{"operadora":"Vivo","tecnologia":"2G","municipio":"Betim","lat":-19.96306,"lon":-44.07222,"data":"12/03/1999","nova":false},{"operadora":"Vivo","tecnologia":"4G","municipio":"Betim","lat":-19.96306,"lon":-44.07222,"data":"12/03/1999","nova":false},{"operadora":"Vivo","tecnologia":"3G","municipio":"São Francisco","lat":-15.96083,"lon":-44.85556,"data":"12/03/1999","nova":false},{"operadora":"Vivo","tecnologia":"2G","municipio":"São Francisco","lat":-15.96083,"lon":-44.85556,"data":"12/03/1999","nova":false},{"operadora":"Vivo","tecnologia":"2G","municipio":"Carmo do Rio Claro","lat":-20.99028,"lon":-46.105,"data":"12/03/1999","nova":false},{"operadora":"Vivo","tecnologia":"3G","municipio":"Caldas","lat":-21.93306,"lon":-46.40028,"data":"12/03/1999","nova":false},{"operadora":"Vivo","tecnologia":"2G","municipio":"Caldas","lat":-21.93306,"lon":-46.40028,"data":"12/03/1999","nova":false},{"operadora":"TIM","tecnologia":"3G","municipio":"Belo Horizonte","lat":-19.896639,"lon":-43.959583,"data":"23/08/2002","nova":false},{"operadora":"TIM","tecnologia":"5G","municipio":"Belo Horizonte","lat":-19.896639,"lon":-43.959583,"data":"23/08/2002","nova":false},{"operadora":"TIM","tecnologia":"2G","municipio":"Belo Horizonte","lat":-19.896639,"lon":-43.959583,"data":"23/08/2002","nova":false},{"operadora":"TIM","tecnologia":"4G","municipio":"Belo Horizonte","lat":-19.896639,"lon":-43.959583,"data":"23/08/2002","nova":false},{"operadora":"TIM","tecnologia":"2G","municipio":"Belo Horizonte","lat":-19.862119,"lon":-43.968931,"data":"23/08/2002","nova":false},{"operadora":"TIM","tecnologia":"3G","municipio":"Belo Horizonte","lat":-19.862119,"lon":-43.968931,"data":"23/08/2002","nova":false},{"operadora":"TIM","tecnologia":"4G","municipio":"Belo Horizonte","lat":-19.862119,"lon":-43.968931,"data":"23/08/2002","nova":false},{"operadora":"TIM","tecnologia":"5G","municipio":"Belo Horizonte","lat":-19.862119,"lon":-43.968931,"data":"23/08/2002","nova":false},{"operadora":"TIM","tecnologia":"2G","municipio":"Belo Horizonte","lat":-19.817639,"lon":-43.950583,"data":"23/08/2002","nova":false},{"operadora":"TIM","tecnologia":"4G","municipio":"Belo Horizonte","lat":-19.817639,"lon":-43.950583,"data":"23/08/2002","nova":false},{"operadora":"TIM","tecnologia":"3G","municipio":"Belo Horizonte","lat":-19.817639,"lon":-43.950583,"data":"23/08/2002","nova":false},{"operadora":"TIM","tecnologia":"2G","municipio":"Belo Horizonte","lat":-19.847,"lon":-43.980444,"data":"23/08/2002","nova":false},{"operadora":"TIM","tecnologia":"5G","municipio":"Belo Horizonte","lat":-19.847,"lon":-43.980444,"data":"23/08/2002","nova":false},{"operadora":"TIM","tecnologia":"3G","municipio":"Belo Horizonte","lat":-19.847,"lon":-43.980444,"data":"23/08/2002","nova":false},{"operadora":"TIM","tecnologia":"4G","municipio":"Belo Horizonte","lat":-19.834111,"lon":-43.967667,"data":"23/08/2002","nova":false},{"operadora":"TIM","tecnologia":"3G","municipio":"Belo Horizonte","lat":-19.834111,"lon":-43.967667,"data":"23/08/2002","nova":false},{"operadora":"TIM","tecnologia":"2G","municipio":"Belo Horizonte","lat":-19.834111,"lon":-43.967667,"data":"23/08/2002","nova":false},{"operadora":"TIM","tecnologia":"5G","municipio":"Belo Horizonte","lat":-19.927875,"lon":-43.946889,"data":"23/08/2002","nova":false},{"operadora":"TIM","tecnologia":"4G","municipio":"Belo Horizonte","lat":-19.927875,"lon":-43.946889,"data":"23/08/2002","nova":false},{"operadora":"TIM","tecnologia":"2G","municipio":"Belo Horizonte","lat":-19.927875,"lon":-43.946889,"data":"23/08/2002","nova":false},{"operadora":"TIM","tecnologia":"3G","municipio":"Belo Horizonte","lat":-19.927875,"lon":-43.946889,"data":"23/08/2002","nova":false},{"operadora":"TIM","tecnologia":"2G","municipio":"Belo Horizonte","lat":-19.94889,"lon":-43.96083,"data":"23/08/2002","nova":false},{"operadora":"TIM","tecnologia":"4G","municipio":"Belo Horizonte","lat":-19.94889,"lon":-43.96083,"data":"23/08/2002","nova":false},{"operadora":"TIM","tecnologia":"3G","municipio":"Belo Horizonte","lat":-19.94889,"lon":-43.96083,"data":"23/08/2002","nova":false},{"operadora":"TIM","tecnologia":"5G","municipio":"Belo Horizonte","lat":-19.94889,"lon":-43.96083,"data":"23/08/2002","nova":false},{"operadora":"TIM","tecnologia":"3G","municipio":"Nova Lima","lat":-19.98139,"lon":-43.94389,"data":"14/10/1999","nova":false},{"operadora":"TIM","tecnologia":"4G","municipio":"Nova Lima","lat":-19.98139,"lon":-43.94389,"data":"14/10/1999","nova":false},{"operadora":"TIM","tecnologia":"2G","municipio":"Nova Lima","lat":-19.98139,"lon":-43.94389,"data":"14/10/1999","nova":false},{"operadora":"Vivo","tecnologia":"2G","municipio":"Betim","lat":-19.936944,"lon":-44.118056,"data":"12/03/1999","nova":false},{"operadora":"Vivo","tecnologia":"3G","municipio":"Betim","lat":-19.936944,"lon":-44.118056,"data":"12/03/1999","nova":false},{"operadora":"Vivo","tecnologia":"4G","municipio":"Betim","lat":-19.936944,"lon":-44.118056,"data":"12/03/1999","nova":false},{"operadora":"Vivo","tecnologia":"2G","municipio":"Belo Horizonte","lat":-19.95,"lon":-43.99083,"data":"12/03/1999","nova":false},{"operadora":"Vivo","tecnologia":"3G","municipio":"Belo Horizonte","lat":-19.95,"lon":-43.99083,"data":"12/03/1999","nova":false},{"operadora":"Vivo","tecnologia":"4G","municipio":"Belo Horizonte","lat":-19.95,"lon":-43.99083,"data":"12/03/1999","nova":false},{"operadora":"Vivo","tecnologia":"2G","municipio":"Manga","lat":-14.7577,"lon":-43.9347,"data":"04/04/2022","nova":false},{"operadora":"Vivo","tecnologia":"3G","municipio":"Manga","lat":-14.7577,"lon":-43.9347,"data":"04/04/2022","nova":false},{"operadora":"Vivo","tecnologia":"3G","municipio":"Sete Lagoas","lat":-19.592878,"lon":-44.2271,"data":"12/03/1999","nova":false},{"operadora":"Vivo","tecnologia":"2G","municipio":"Sete Lagoas","lat":-19.592878,"lon":-44.2271,"data":"12/03/1999","nova":false},{"operadora":"Vivo","tecnologia":"3G","municipio":"Itapecerica","lat":-20.453608,"lon":-45.146133,"data":"12/03/1999","nova":false},{"operadora":"Vivo","tecnologia":"2G","municipio":"Itapecerica","lat":-20.453608,"lon":-45.146133,"data":"12/03/1999","nova":false},{"operadora":"Vivo","tecnologia":"4G","municipio":"Itapecerica","lat":-20.453608,"lon":-45.146133,"data":"12/03/1999","nova":false},{"operadora":"TIM","tecnologia":"2G","municipio":"Belo Horizonte","lat":-19.948667,"lon":-43.920694,"data":"23/08/2002","nova":false},{"operadora":"TIM","tecnologia":"4G","municipio":"Belo Horizonte","lat":-19.948667,"lon":-43.920694,"data":"23/08/2002","nova":false},{"operadora":"TIM","tecnologia":"4G","municipio":"Belo Horizonte","lat":-19.8865,"lon":-43.948222,"data":"23/08/2002","nova":false},{"operadora":"TIM","tecnologia":"3G","municipio":"Belo Horizonte","lat":-19.8865,"lon":-43.948222,"data":"23/08/2002","nova":false},{"operadora":"TIM","tecnologia":"4G","municipio":"Belo Horizonte","lat":-19.895306,"lon":-43.908194,"data":"23/08/2002","nova":false},{"operadora":"TIM","tecnologia":"3G","municipio":"Belo Horizonte","lat":-19.895306,"lon":-43.908194,"data":"23/08/2002","nova":false},{"operadora":"TIM","tecnologia":"2G","municipio":"Belo Horizonte","lat":-19.895306,"lon":-43.908194,"data":"23/08/2002","nova":false},{"operadora":"TIM","tecnologia":"5G","municipio":"Belo Horizonte","lat":-19.895306,"lon":-43.908194,"data":"23/08/2002","nova":false},{"operadora":"TIM","tecnologia":"4G","municipio":"Belo Horizonte","lat":-19.887306,"lon":-43.932917,"data":"23/08/2002","nova":false},{"operadora":"TIM","tecnologia":"2G","municipio":"Belo Horizonte","lat":-19.887306,"lon":-43.932917,"data":"23/08/2002","nova":false},{"operadora":"TIM","tecnologia":"3G","municipio":"Belo Horizonte","lat":-19.887306,"lon":-43.932917,"data":"23/08/2002","nova":false},{"operadora":"TIM","tecnologia":"2G","municipio":"Belo Horizonte","lat":-19.874611,"lon":-43.926194,"data":"23/08/2002","nova":false},{"operadora":"TIM","tecnologia":"4G","municipio":"Belo Horizonte","lat":-19.874611,"lon":-43.926194,"data":"23/08/2002","nova":false},{"operadora":"TIM","tecnologia":"3G","municipio":"Belo Horizonte","lat":-19.874611,"lon":-43.926194,"data":"23/08/2002","nova":false},{"operadora":"TIM","tecnologia":"4G","municipio":"Belo Horizonte","lat":-19.879028,"lon":-43.911917,"data":"23/08/2002","nova":false},{"operadora":"TIM","tecnologia":"2G","municipio":"Belo Horizonte","lat":-19.879028,"lon":-43.911917,"data":"23/08/2002","nova":false},{"operadora":"TIM","tecnologia":"3G","municipio":"Belo Horizonte","lat":-19.879028,"lon":-43.911917,"data":"23/08/2002","nova":false},{"operadora":"TIM","tecnologia":"3G","municipio":"Contagem","lat":-19.955167,"lon":-44.023528,"data":"23/08/2002","nova":false},{"operadora":"TIM","tecnologia":"4G","municipio":"Contagem","lat":-19.955167,"lon":-44.023528,"data":"23/08/2002","nova":false},{"operadora":"TIM","tecnologia":"2G","municipio":"Contagem","lat":-19.955167,"lon":-44.023528,"data":"23/08/2002","nova":false},{"operadora":"TIM","tecnologia":"3G","municipio":"Uberlândia","lat":-18.909806,"lon":-48.258583,"data":"23/08/2002","nova":false},{"operadora":"TIM","tecnologia":"2G","municipio":"Uberlândia","lat":-18.909806,"lon":-48.258583,"data":"23/08/2002","nova":false},{"operadora":"TIM","tecnologia":"4G","municipio":"Uberlândia","lat":-18.909806,"lon":-48.258583,"data":"23/08/2002","nova":false},{"operadora":"TIM","tecnologia":"2G","municipio":"Uberaba","lat":-19.356472,"lon":-48.086861,"data":"14/06/1999","nova":false},{"operadora":"TIM","tecnologia":"3G","municipio":"Uberlândia","lat":-18.942406,"lon":-48.274008,"data":"23/08/2002","nova":false},{"operadora":"TIM","tecnologia":"2G","municipio":"Uberlândia","lat":-18.942406,"lon":-48.274008,"data":"23/08/2002","nova":false},{"operadora":"TIM","tecnologia":"4G","municipio":"Uberlândia","lat":-18.942406,"lon":-48.274008,"data":"23/08/2002","nova":false},{"operadora":"TIM","tecnologia":"5G","municipio":"Uberlândia","lat":-18.942406,"lon":-48.274008,"data":"23/08/2002","nova":false},{"operadora":"TIM","tecnologia":"2G","municipio":"Uberlândia","lat":-19.1375,"lon":-48.170667,"data":"14/06/1999","nova":false},{"operadora":"Vivo","tecnologia":"3G","municipio":"Abaeté","lat":-19.15694,"lon":-45.45139,"data":"03/12/1999","nova":false},{"operadora":"Vivo","tecnologia":"4G","municipio":"Abaeté","lat":-19.15694,"lon":-45.45139,"data":"03/12/1999","nova":false},{"operadora":"Vivo","tecnologia":"2G","municipio":"Abaeté","lat":-19.15694,"lon":-45.45139,"data":"03/12/1999","nova":false},{"operadora":"Vivo","tecnologia":"3G","municipio":"Almenara","lat":-16.20278,"lon":-40.67389,"data":"03/12/1999","nova":false},{"operadora":"Vivo","tecnologia":"2G","municipio":"Almenara","lat":-16.20278,"lon":-40.67389,"data":"03/12/1999","nova":false},{"operadora":"Vivo","tecnologia":"3G","municipio":"Araxá","lat":-19.58722,"lon":-46.93083,"data":"03/12/1999","nova":false},{"operadora":"Vivo","tecnologia":"4G","municipio":"Araxá","lat":-19.58722,"lon":-46.93083,"data":"03/12/1999","nova":false},{"operadora":"Vivo","tecnologia":"2G","municipio":"Araxá","lat":-19.58722,"lon":-46.93083,"data":"03/12/1999","nova":false},{"operadora":"Vivo","tecnologia":"3G","municipio":"Barbacena","lat":-21.20944,"lon":-43.75556,"data":"03/12/1999","nova":false},{"operadora":"Vivo","tecnologia":"2G","municipio":"Barbacena","lat":-21.20944,"lon":-43.75556,"data":"03/12/1999","nova":false},{"operadora":"Vivo","tecnologia":"2G","municipio":"Governador Valadares","lat":-18.84722,"lon":-41.94472,"data":"03/12/1999","nova":false},{"operadora":"Vivo","tecnologia":"3G","municipio":"Governador Valadares","lat":-18.84722,"lon":-41.94472,"data":"03/12/1999","nova":false},{"operadora":"Vivo","tecnologia":"3G","municipio":"Montes Claros","lat":-16.72111,"lon":-43.84417,"data":"03/12/1999","nova":false},{"operadora":"Vivo","tecnologia":"2G","municipio":"Montes Claros","lat":-16.72111,"lon":-43.84417,"data":"03/12/1999","nova":false},{"operadora":"Vivo","tecnologia":"4G","municipio":"Poços de Caldas","lat":-21.78889,"lon":-46.53778,"data":"03/12/1999","nova":false},{"operadora":"Vivo","tecnologia":"3G","municipio":"Poços de Caldas","lat":-21.78889,"lon":-46.53778,"data":"03/12/1999","nova":false},{"operadora":"Vivo","tecnologia":"2G","municipio":"Poços de Caldas","lat":-21.78889,"lon":-46.53778,"data":"03/12/1999","nova":false},{"operadora":"Vivo","tecnologia":"3G","municipio":"São Gonçalo do Sapucaí","lat":-21.87694,"lon":-45.6075,"data":"03/12/1999","nova":false},{"operadora":"Vivo","tecnologia":"2G","municipio":"São Gonçalo do Sapucaí","lat":-21.87694,"lon":-45.6075,"data":"03/12/1999","nova":false},{"operadora":"Vivo","tecnologia":"4G","municipio":"Sete Lagoas","lat":-19.46444,"lon":-44.24667,"data":"15/06/2021","nova":false},{"operadora":"Vivo","tecnologia":"2G","municipio":"Sete Lagoas","lat":-19.46444,"lon":-44.24667,"data":"15/06/2021","nova":false},{"operadora":"Vivo","tecnologia":"3G","municipio":"Sete Lagoas","lat":-19.46444,"lon":-44.24667,"data":"15/06/2021","nova":false},{"operadora":"Vivo","tecnologia":"3G","municipio":"Ressaquinha","lat":-21.08139,"lon":-43.75917,"data":"03/12/1999","nova":false},{"operadora":"Vivo","tecnologia":"2G","municipio":"Ressaquinha","lat":-21.08139,"lon":-43.75917,"data":"03/12/1999","nova":false},{"operadora":"Vivo","tecnologia":"3G","municipio":"Dores do Indaiá","lat":-19.45722,"lon":-45.59556,"data":"03/12/1999","nova":false},{"operadora":"Vivo","tecnologia":"2G","municipio":"Dores do Indaiá","lat":-19.45722,"lon":-45.59556,"data":"03/12/1999","nova":false},{"operadora":"Vivo","tecnologia":"4G","municipio":"Dores do Indaiá","lat":-19.45722,"lon":-45.59556,"data":"03/12/1999","nova":false},{"operadora":"Vivo","tecnologia":"3G","municipio":"Perdões","lat":-21.09167,"lon":-45.08389,"data":"03/12/1999","nova":false},{"operadora":"Vivo","tecnologia":"4G","municipio":"Perdões","lat":-21.09167,"lon":-45.08389,"data":"03/12/1999","nova":false},{"operadora":"Vivo","tecnologia":"2G","municipio":"Perdões","lat":-21.09167,"lon":-45.08389,"data":"03/12/1999","nova":false},{"operadora":"Vivo","tecnologia":"3G","municipio":"Muzambinho","lat":-21.372108,"lon":-46.524969,"data":"03/12/1999","nova":false},{"operadora":"Vivo","tecnologia":"2G","municipio":"Muzambinho","lat":-21.372108,"lon":-46.524969,"data":"03/12/1999","nova":false},{"operadora":"Vivo","tecnologia":"3G","municipio":"Ipatinga","lat":-19.48028,"lon":-42.55722,"data":"03/12/1999","nova":false},{"operadora":"Vivo","tecnologia":"4G","municipio":"Ipatinga","lat":-19.48028,"lon":-42.55722,"data":"03/12/1999","nova":false},{"operadora":"Vivo","tecnologia":"2G","municipio":"Ipatinga","lat":-19.48028,"lon":-42.55722,"data":"03/12/1999","nova":false},{"operadora":"Vivo","tecnologia":"2G","municipio":"Ipatinga","lat":-19.49972,"lon":-42.56833,"data":"03/12/1999","nova":false},{"operadora":"Vivo","tecnologia":"3G","municipio":"Ipatinga","lat":-19.49972,"lon":-42.56833,"data":"03/12/1999","nova":false},{"operadora":"Vivo","tecnologia":"4G","municipio":"Ipatinga","lat":-19.49972,"lon":-42.56833,"data":"03/12/1999","nova":false},{"operadora":"Vivo","tecnologia":"3G","municipio":"Belo Horizonte","lat":-19.92861,"lon":-43.95028,"data":"03/12/1999","nova":false},{"operadora":"Vivo","tecnologia":"2G","municipio":"Belo Horizonte","lat":-19.92861,"lon":-43.95028,"data":"03/12/1999","nova":false},{"operadora":"Vivo","tecnologia":"4G","municipio":"Belo Horizonte","lat":-19.89278,"lon":-43.96778,"data":"03/12/1999","nova":false},{"operadora":"Vivo","tecnologia":"3G","municipio":"Belo Horizonte","lat":-19.89278,"lon":-43.96778,"data":"03/12/1999","nova":false},{"operadora":"Vivo","tecnologia":"2G","municipio":"Belo Horizonte","lat":-19.89278,"lon":-43.96778,"data":"03/12/1999","nova":false},{"operadora":"Vivo","tecnologia":"4G","municipio":"Contagem","lat":-19.88889,"lon":-44.02694,"data":"03/12/1999","nova":false},{"operadora":"Vivo","tecnologia":"3G","municipio":"Contagem","lat":-19.88889,"lon":-44.02694,"data":"03/12/1999","nova":false},{"operadora":"Vivo","tecnologia":"2G","municipio":"Contagem","lat":-19.88889,"lon":-44.02694,"data":"03/12/1999","nova":false},{"operadora":"Vivo","tecnologia":"3G","municipio":"Belo Horizonte","lat":-19.92333,"lon":-43.99333,"data":"03/12/1999","nova":false},{"operadora":"Vivo","tecnologia":"4G","municipio":"Belo Horizonte","lat":-19.92333,"lon":-43.99333,"data":"03/12/1999","nova":false},{"operadora":"Vivo","tecnologia":"2G","municipio":"Belo Horizonte","lat":-19.92333,"lon":-43.99333,"data":"03/12/1999","nova":false},{"operadora":"Vivo","tecnologia":"3G","municipio":"Belo Horizonte","lat":-19.97222,"lon":-43.94583,"data":"03/12/1999","nova":false},{"operadora":"Vivo","tecnologia":"4G","municipio":"Belo Horizonte","lat":-19.97222,"lon":-43.94583,"data":"03/12/1999","nova":false},{"operadora":"Vivo","tecnologia":"2G","municipio":"Belo Horizonte","lat":-19.97222,"lon":-43.94583,"data":"03/12/1999","nova":false},{"operadora":"Vivo","tecnologia":"4G","municipio":"Ribeirão das Neves","lat":-19.79333,"lon":-44.09639,"data":"03/12/1999","nova":false},{"operadora":"Vivo","tecnologia":"3G","municipio":"Betim","lat":-20.02719,"lon":-44.23878,"data":"13/09/2021","nova":false},{"operadora":"Vivo","tecnologia":"2G","municipio":"Betim","lat":-20.02719,"lon":-44.23878,"data":"13/09/2021","nova":false},{"operadora":"Vivo","tecnologia":"4G","municipio":"Contagem","lat":-19.919444,"lon":-44.028889,"data":"03/12/1999","nova":false},{"operadora":"Vivo","tecnologia":"3G","municipio":"Contagem","lat":-19.919444,"lon":-44.028889,"data":"03/12/1999","nova":false},{"operadora":"Vivo","tecnologia":"2G","municipio":"Contagem","lat":-19.919444,"lon":-44.028889,"data":"03/12/1999","nova":false},{"operadora":"Vivo","tecnologia":"3G","municipio":"Belo Horizonte","lat":-19.97447,"lon":-43.9449,"data":"03/12/1999","nova":false},{"operadora":"Vivo","tecnologia":"4G","municipio":"Belo Horizonte","lat":-19.97447,"lon":-43.9449,"data":"03/12/1999","nova":false},{"operadora":"Vivo","tecnologia":"2G","municipio":"Belo Horizonte","lat":-19.97447,"lon":-43.9449,"data":"03/12/1999","nova":false},{"operadora":"Vivo","tecnologia":"2G","municipio":"Belo Horizonte","lat":-19.93861,"lon":-43.94,"data":"02/04/2007","nova":false},{"operadora":"Vivo","tecnologia":"3G","municipio":"Belo Horizonte","lat":-19.93861,"lon":-43.94,"data":"02/04/2007","nova":false},{"operadora":"Vivo","tecnologia":"3G","municipio":"Belo Horizonte","lat":-19.912633,"lon":-43.940147,"data":"02/04/2007","nova":false},{"operadora":"Vivo","tecnologia":"2G","municipio":"Belo Horizonte","lat":-19.912633,"lon":-43.940147,"data":"02/04/2007","nova":false},{"operadora":"Vivo","tecnologia":"4G","municipio":"Belo Horizonte","lat":-19.912633,"lon":-43.940147,"data":"02/04/2007","nova":false},{"operadora":"Vivo","tecnologia":"2G","municipio":"Ipatinga","lat":-19.476581,"lon":-42.528314,"data":"03/12/1999","nova":false},{"operadora":"Vivo","tecnologia":"4G","municipio":"Ipatinga","lat":-19.476581,"lon":-42.528314,"data":"03/12/1999","nova":false},{"operadora":"Vivo","tecnologia":"3G","municipio":"Ipatinga","lat":-19.476581,"lon":-42.528314,"data":"03/12/1999","nova":false},{"operadora":"Vivo","tecnologia":"3G","municipio":"Coronel Fabriciano","lat":-19.4975,"lon":-42.63667,"data":"03/12/1999","nova":false},{"operadora":"Vivo","tecnologia":"4G","municipio":"Coronel Fabriciano","lat":-19.4975,"lon":-42.63667,"data":"03/12/1999","nova":false},{"operadora":"Vivo","tecnologia":"2G","municipio":"Coronel Fabriciano","lat":-19.4975,"lon":-42.63667,"data":"03/12/1999","nova":false},{"operadora":"Vivo","tecnologia":"3G","municipio":"Pouso Alegre","lat":-22.23331,"lon":-45.93453,"data":"03/12/1999","nova":false},{"operadora":"Vivo","tecnologia":"4G","municipio":"Pouso Alegre","lat":-22.23331,"lon":-45.93453,"data":"03/12/1999","nova":false},{"operadora":"Vivo","tecnologia":"2G","municipio":"Pouso Alegre","lat":-22.23331,"lon":-45.93453,"data":"03/12/1999","nova":false},{"operadora":"TIM","tecnologia":"4G","municipio":"Divinópolis","lat":-20.11075,"lon":-44.887417,"data":"14/06/1999","nova":false},{"operadora":"TIM","tecnologia":"3G","municipio":"Contagem","lat":-19.845,"lon":-44.078333,"data":"14/06/1999","nova":false},{"operadora":"TIM","tecnologia":"2G","municipio":"Contagem","lat":-19.845,"lon":-44.078333,"data":"14/06/1999","nova":false},{"operadora":"TIM","tecnologia":"5G","municipio":"Contagem","lat":-19.845,"lon":-44.078333,"data":"14/06/1999","nova":false},{"operadora":"TIM","tecnologia":"2G","municipio":"Pedro Leopoldo","lat":-19.664611,"lon":-44.194767,"data":"14/06/1999","nova":false},{"operadora":"TIM","tecnologia":"3G","municipio":"Pedro Leopoldo","lat":-19.664611,"lon":-44.194767,"data":"14/06/1999","nova":false},{"operadora":"TIM","tecnologia":"4G","municipio":"Sete Lagoas","lat":-19.507,"lon":-44.270472,"data":"14/06/1999","nova":false},{"operadora":"TIM","tecnologia":"3G","municipio":"Sete Lagoas","lat":-19.507,"lon":-44.270472,"data":"14/06/1999","nova":false},{"operadora":"TIM","tecnologia":"2G","municipio":"Sete Lagoas","lat":-19.507,"lon":-44.270472,"data":"14/06/1999","nova":false},{"operadora":"TIM","tecnologia":"2G","municipio":"Timóteo","lat":-19.563944,"lon":-42.636694,"data":"14/06/1999","nova":false},{"operadora":"TIM","tecnologia":"4G","municipio":"Timóteo","lat":-19.563944,"lon":-42.636694,"data":"14/06/1999","nova":false},{"operadora":"TIM","tecnologia":"3G","municipio":"Timóteo","lat":-19.563944,"lon":-42.636694,"data":"14/06/1999","nova":false},{"operadora":"TIM","tecnologia":"3G","municipio":"Lavras","lat":-21.240694,"lon":-44.997389,"data":"27/07/1999","nova":false},{"operadora":"TIM","tecnologia":"2G","municipio":"Lavras","lat":-21.240694,"lon":-44.997389,"data":"27/07/1999","nova":false},{"operadora":"TIM","tecnologia":"3G","municipio":"Três Pontas","lat":-21.376308,"lon":-45.511497,"data":"27/07/1999","nova":false},{"operadora":"TIM","tecnologia":"2G","municipio":"Três Pontas","lat":-21.376308,"lon":-45.511497,"data":"27/07/1999","nova":false},{"operadora":"TIM","tecnologia":"3G","municipio":"Pouso Alegre","lat":-22.246111,"lon":-45.889333,"data":"27/07/1999","nova":false},{"operadora":"TIM","tecnologia":"2G","municipio":"Pouso Alegre","lat":-22.246111,"lon":-45.889333,"data":"27/07/1999","nova":false},{"operadora":"TIM","tecnologia":"4G","municipio":"Teófilo Otoni","lat":-17.847056,"lon":-41.509583,"data":"20/08/1999","nova":false},{"operadora":"TIM","tecnologia":"3G","municipio":"Teófilo Otoni","lat":-17.847056,"lon":-41.509583,"data":"20/08/1999","nova":false},{"operadora":"TIM","tecnologia":"2G","municipio":"Teófilo Otoni","lat":-17.847056,"lon":-41.509583,"data":"20/08/1999","nova":false},{"operadora":"TIM","tecnologia":"3G","municipio":"Itaúna","lat":-20.055972,"lon":-44.581528,"data":"08/11/1999","nova":false},{"operadora":"TIM","tecnologia":"4G","municipio":"Itaúna","lat":-20.055972,"lon":-44.581528,"data":"08/11/1999","nova":false},{"operadora":"TIM","tecnologia":"2G","municipio":"Itaúna","lat":-20.055972,"lon":-44.581528,"data":"08/11/1999","nova":false},{"operadora":"TIM","tecnologia":"4G","municipio":"Campo Belo","lat":-20.899861,"lon":-45.285839,"data":"20/09/1999","nova":false},{"operadora":"TIM","tecnologia":"2G","municipio":"Campo Belo","lat":-20.899861,"lon":-45.285839,"data":"20/09/1999","nova":false},{"operadora":"TIM","tecnologia":"3G","municipio":"Campo Belo","lat":-20.899861,"lon":-45.285839,"data":"20/09/1999","nova":false},{"operadora":"TIM","tecnologia":"4G","municipio":"Pará de Minas","lat":-19.872556,"lon":-44.621583,"data":"20/09/1999","nova":false},{"operadora":"TIM","tecnologia":"3G","municipio":"Pará de Minas","lat":-19.872556,"lon":-44.621583,"data":"20/09/1999","nova":false},{"operadora":"TIM","tecnologia":"2G","municipio":"Pará de Minas","lat":-19.872556,"lon":-44.621583,"data":"20/09/1999","nova":false},{"operadora":"TIM","tecnologia":"2G","municipio":"Unaí","lat":-16.365175,"lon":-46.900939,"data":"08/11/1999","nova":false},{"operadora":"TIM","tecnologia":"2G","municipio":"Monte Carmelo","lat":-18.726583,"lon":-47.488861,"data":"08/11/1999","nova":false},{"operadora":"TIM","tecnologia":"3G","municipio":"Patrocínio","lat":-18.914972,"lon":-47.005083,"data":"08/11/1999","nova":false},{"operadora":"TIM","tecnologia":"2G","municipio":"Patrocínio","lat":-18.914972,"lon":-47.005083,"data":"08/11/1999","nova":false},{"operadora":"Vivo","tecnologia":"4G","municipio":"Belo Horizonte","lat":-20.00417,"lon":-44.03,"data":"03/12/1999","nova":false},{"operadora":"Vivo","tecnologia":"3G","municipio":"Belo Horizonte","lat":-20.00417,"lon":-44.03,"data":"03/12/1999","nova":false},{"operadora":"Vivo","tecnologia":"2G","municipio":"Belo Horizonte","lat":-20.00417,"lon":-44.03,"data":"03/12/1999","nova":false},{"operadora":"Vivo","tecnologia":"3G","municipio":"Juiz de Fora","lat":-21.766331,"lon":-43.341469,"data":"03/12/1999","nova":false},{"operadora":"Vivo","tecnologia":"4G","municipio":"Juiz de Fora","lat":-21.766331,"lon":-43.341469,"data":"03/12/1999","nova":false},{"operadora":"Vivo","tecnologia":"2G","municipio":"Juiz de Fora","lat":-21.766331,"lon":-43.341469,"data":"03/12/1999","nova":false},{"operadora":"Vivo","tecnologia":"4G","municipio":"Juiz de Fora","lat":-21.76111,"lon":-43.35222,"data":"03/12/1999","nova":false},{"operadora":"Vivo","tecnologia":"3G","municipio":"Juiz de Fora","lat":-21.76111,"lon":-43.35222,"data":"03/12/1999","nova":false},{"operadora":"Vivo","tecnologia":"2G","municipio":"Juiz de Fora","lat":-21.76111,"lon":-43.35222,"data":"03/12/1999","nova":false},{"operadora":"Vivo","tecnologia":"3G","municipio":"Juiz de Fora","lat":-21.76972,"lon":-43.35389,"data":"03/12/1999","nova":false},{"operadora":"Vivo","tecnologia":"4G","municipio":"Juiz de Fora","lat":-21.76972,"lon":-43.35389,"data":"03/12/1999","nova":false},{"operadora":"Vivo","tecnologia":"2G","municipio":"Juiz de Fora","lat":-21.76972,"lon":-43.35389,"data":"03/12/1999","nova":false},{"operadora":"Vivo","tecnologia":"3G","municipio":"Araguari","lat":-18.65139,"lon":-48.18722,"data":"03/12/1999","nova":false},{"operadora":"Vivo","tecnologia":"2G","municipio":"Araguari","lat":-18.65139,"lon":-48.18722,"data":"03/12/1999","nova":false},{"operadora":"Vivo","tecnologia":"3G","municipio":"Divinópolis","lat":-20.14278,"lon":-44.89083,"data":"03/12/1999","nova":false},{"operadora":"Vivo","tecnologia":"4G","municipio":"Divinópolis","lat":-20.14278,"lon":-44.89083,"data":"03/12/1999","nova":false},{"operadora":"Vivo","tecnologia":"2G","municipio":"Divinópolis","lat":-20.14278,"lon":-44.89083,"data":"03/12/1999","nova":false},{"operadora":"Vivo","tecnologia":"4G","municipio":"Patrocínio","lat":-18.94111,"lon":-46.98417,"data":"13/09/2021","nova":false},{"operadora":"Vivo","tecnologia":"3G","municipio":"Patrocínio","lat":-18.94111,"lon":-46.98417,"data":"13/09/2021","nova":false},{"operadora":"Vivo","tecnologia":"2G","municipio":"Patrocínio","lat":-18.94111,"lon":-46.98417,"data":"13/09/2021","nova":false},{"operadora":"Vivo","tecnologia":"2G","municipio":"Mantena","lat":-18.77828,"lon":-40.97611,"data":"03/12/1999","nova":false},{"operadora":"Vivo","tecnologia":"2G","municipio":"Governador Valadares","lat":-18.856889,"lon":-41.944667,"data":"03/12/1999","nova":false},{"operadora":"Vivo","tecnologia":"3G","municipio":"Governador Valadares","lat":-18.856889,"lon":-41.944667,"data":"03/12/1999","nova":false},{"operadora":"Vivo","tecnologia":"3G","municipio":"Governador Valadares","lat":-18.85794,"lon":-41.95633,"data":"03/12/1999","nova":false},{"operadora":"Vivo","tecnologia":"4G","municipio":"Governador Valadares","lat":-18.85794,"lon":-41.95633,"data":"03/12/1999","nova":false},{"operadora":"Vivo","tecnologia":"2G","municipio":"Governador Valadares","lat":-18.85794,"lon":-41.95633,"data":"03/12/1999","nova":false},{"operadora":"Vivo","tecnologia":"4G","municipio":"Alfenas","lat":-21.43333,"lon":-45.96139,"data":"03/12/1999","nova":false},{"operadora":"Vivo","tecnologia":"3G","municipio":"Alfenas","lat":-21.43333,"lon":-45.96139,"data":"03/12/1999","nova":false},{"operadora":"Vivo","tecnologia":"2G","municipio":"Alfenas","lat":-21.43333,"lon":-45.96139,"data":"03/12/1999","nova":false},{"operadora":"Vivo","tecnologia":"3G","municipio":"Jacutinga","lat":-22.2875,"lon":-46.61389,"data":"03/12/1999","nova":false},{"operadora":"Vivo","tecnologia":"4G","municipio":"Jacutinga","lat":-22.2875,"lon":-46.61389,"data":"03/12/1999","nova":false},{"operadora":"Vivo","tecnologia":"2G","municipio":"Jacutinga","lat":-22.2875,"lon":-46.61389,"data":"03/12/1999","nova":false},{"operadora":"Vivo","tecnologia":"3G","municipio":"Varginha","lat":-21.55611,"lon":-45.43444,"data":"03/12/1999","nova":false},{"operadora":"Vivo","tecnologia":"4G","municipio":"Varginha","lat":-21.55611,"lon":-45.43444,"data":"03/12/1999","nova":false},{"operadora":"Vivo","tecnologia":"2G","municipio":"Varginha","lat":-21.55611,"lon":-45.43444,"data":"03/12/1999","nova":false},{"operadora":"Vivo","tecnologia":"3G","municipio":"Montes Claros","lat":-16.74056,"lon":-43.87444,"data":"03/12/1999","nova":false},{"operadora":"Vivo","tecnologia":"2G","municipio":"Montes Claros","lat":-16.74056,"lon":-43.87444,"data":"03/12/1999","nova":false},{"operadora":"Vivo","tecnologia":"3G","municipio":"Capitão Enéas","lat":-16.37792,"lon":-43.68567,"data":"01/01/1999","nova":false},{"operadora":"Vivo","tecnologia":"2G","municipio":"Capitão Enéas","lat":-16.37792,"lon":-43.68567,"data":"01/01/1999","nova":false},{"operadora":"Vivo","tecnologia":"4G","municipio":"Conselheiro Lafaiete","lat":-20.65778,"lon":-43.79472,"data":"03/12/1999","nova":false},{"operadora":"Vivo","tecnologia":"3G","municipio":"Conselheiro Lafaiete","lat":-20.65778,"lon":-43.79472,"data":"03/12/1999","nova":false},{"operadora":"Vivo","tecnologia":"2G","municipio":"Conselheiro Lafaiete","lat":-20.65778,"lon":-43.79472,"data":"03/12/1999","nova":false},{"operadora":"Vivo","tecnologia":"3G","municipio":"Ipatinga","lat":-19.48944,"lon":-42.51861,"data":"03/12/1999","nova":false},{"operadora":"Vivo","tecnologia":"4G","municipio":"Ipatinga","lat":-19.48944,"lon":-42.51861,"data":"03/12/1999","nova":false},{"operadora":"Vivo","tecnologia":"3G","municipio":"Itabira","lat":-19.62333,"lon":-43.21778,"data":"03/12/1999","nova":false},{"operadora":"Vivo","tecnologia":"4G","municipio":"Itabira","lat":-19.62333,"lon":-43.21778,"data":"03/12/1999","nova":false},{"operadora":"Vivo","tecnologia":"2G","municipio":"Itabira","lat":-19.62333,"lon":-43.21778,"data":"03/12/1999","nova":false},{"operadora":"Vivo","tecnologia":"3G","municipio":"Paraopeba","lat":-19.28611,"lon":-44.40472,"data":"03/12/1999","nova":false},{"operadora":"Vivo","tecnologia":"2G","municipio":"Paraopeba","lat":-19.28611,"lon":-44.40472,"data":"03/12/1999","nova":false},{"operadora":"Vivo","tecnologia":"3G","municipio":"Timóteo","lat":-19.54,"lon":-42.64278,"data":"03/12/1999","nova":false},{"operadora":"Vivo","tecnologia":"4G","municipio":"Timóteo","lat":-19.54,"lon":-42.64278,"data":"03/12/1999","nova":false},{"operadora":"Vivo","tecnologia":"2G","municipio":"Timóteo","lat":-19.54,"lon":-42.64278,"data":"03/12/1999","nova":false},{"operadora":"Vivo","tecnologia":"3G","municipio":"Juiz de Fora","lat":-21.67,"lon":-43.43417,"data":"03/12/1999","nova":false},{"operadora":"Vivo","tecnologia":"2G","municipio":"Juiz de Fora","lat":-21.67,"lon":-43.43417,"data":"03/12/1999","nova":false},{"operadora":"Vivo","tecnologia":"4G","municipio":"Juiz de Fora","lat":-21.67,"lon":-43.43417,"data":"03/12/1999","nova":false},{"operadora":"TIM","tecnologia":"2G","municipio":"Januária","lat":-15.487889,"lon":-44.365389,"data":"08/11/1999","nova":false},{"operadora":"TIM","tecnologia":"3G","municipio":"Ponte Nova","lat":-20.41056,"lon":-42.90444,"data":"08/11/1999","nova":false},{"operadora":"TIM","tecnologia":"2G","municipio":"Mantena","lat":-18.780139,"lon":-40.986128,"data":"08/11/1999","nova":false},{"operadora":"TIM","tecnologia":"4G","municipio":"Mantena","lat":-18.780139,"lon":-40.986128,"data":"08/11/1999","nova":false},{"operadora":"TIM","tecnologia":"2G","municipio":"Ipatinga","lat":-19.450417,"lon":-42.605389,"data":"08/11/1999","nova":false},{"operadora":"TIM","tecnologia":"3G","municipio":"Ipatinga","lat":-19.450417,"lon":-42.605389,"data":"08/11/1999","nova":false},{"operadora":"TIM","tecnologia":"3G","municipio":"Ouro Branco","lat":-20.52722,"lon":-43.70333,"data":"08/11/1999","nova":false},{"operadora":"TIM","tecnologia":"4G","municipio":"Ouro Branco","lat":-20.52722,"lon":-43.70333,"data":"08/11/1999","nova":false},{"operadora":"TIM","tecnologia":"2G","municipio":"Ouro Branco","lat":-20.52722,"lon":-43.70333,"data":"08/11/1999","nova":false},{"operadora":"TIM","tecnologia":"3G","municipio":"Bocaiúva","lat":-17.118003,"lon":-43.812617,"data":"08/11/1999","nova":false},{"operadora":"TIM","tecnologia":"2G","municipio":"Bocaiúva","lat":-17.118003,"lon":-43.812617,"data":"08/11/1999","nova":false},{"operadora":"TIM","tecnologia":"2G","municipio":"Coração de Jesus","lat":-16.686944,"lon":-44.357222,"data":"30/11/1999","nova":false},{"operadora":"TIM","tecnologia":"3G","municipio":"Esmeraldas","lat":-19.758806,"lon":-44.308917,"data":"30/11/1999","nova":false},{"operadora":"TIM","tecnologia":"2G","municipio":"Esmeraldas","lat":-19.758806,"lon":-44.308917,"data":"30/11/1999","nova":false},{"operadora":"TIM","tecnologia":"4G","municipio":"Iturama","lat":-19.726556,"lon":-50.191833,"data":"08/11/1999","nova":false},{"operadora":"TIM","tecnologia":"3G","municipio":"Iturama","lat":-19.726556,"lon":-50.191833,"data":"08/11/1999","nova":false},{"operadora":"TIM","tecnologia":"2G","municipio":"Iturama","lat":-19.726556,"lon":-50.191833,"data":"08/11/1999","nova":false},{"operadora":"TIM","tecnologia":"2G","municipio":"Mariana","lat":-20.382114,"lon":-43.411842,"data":"30/11/1999","nova":false},{"operadora":"TIM","tecnologia":"3G","municipio":"Mariana","lat":-20.382114,"lon":-43.411842,"data":"30/11/1999","nova":false},{"operadora":"TIM","tecnologia":"2G","municipio":"Nova Porteirinha","lat":-15.80611,"lon":-43.26333,"data":"08/11/1999","nova":false},{"operadora":"TIM","tecnologia":"3G","municipio":"Nova Porteirinha","lat":-15.80611,"lon":-43.26333,"data":"08/11/1999","nova":false},{"operadora":"TIM","tecnologia":"2G","municipio":"Brasília de Minas","lat":-16.21972,"lon":-44.43111,"data":"30/11/1999","nova":false},{"operadora":"TIM","tecnologia":"4G","municipio":"Brasília de Minas","lat":-16.21972,"lon":-44.43111,"data":"30/11/1999","nova":false},{"operadora":"TIM","tecnologia":"2G","municipio":"Rio Pardo de Minas","lat":-15.601108,"lon":-42.506486,"data":"20/03/2000","nova":false},{"operadora":"TIM","tecnologia":"3G","municipio":"Rio Pardo de Minas","lat":-15.601108,"lon":-42.506486,"data":"20/03/2000","nova":false},{"operadora":"TIM","tecnologia":"2G","municipio":"Rio Pardo de Minas","lat":-15.803861,"lon":-42.264806,"data":"30/11/1999","nova":false},{"operadora":"TIM","tecnologia":"3G","municipio":"Machado","lat":-21.681031,"lon":-45.9215,"data":"08/11/1999","nova":false},{"operadora":"TIM","tecnologia":"4G","municipio":"Machado","lat":-21.681031,"lon":-45.9215,"data":"08/11/1999","nova":false},{"operadora":"TIM","tecnologia":"2G","municipio":"Machado","lat":-21.681031,"lon":-45.9215,"data":"08/11/1999","nova":false},{"operadora":"TIM","tecnologia":"3G","municipio":"Jacutinga","lat":-22.288111,"lon":-46.619722,"data":"08/11/1999","nova":false},{"operadora":"TIM","tecnologia":"2G","municipio":"Jacutinga","lat":-22.288111,"lon":-46.619722,"data":"08/11/1999","nova":false},{"operadora":"TIM","tecnologia":"4G","municipio":"Jacutinga","lat":-22.288111,"lon":-46.619722,"data":"08/11/1999","nova":false},{"operadora":"TIM","tecnologia":"3G","municipio":"Carmo do Rio Claro","lat":-20.989783,"lon":-46.105975,"data":"08/11/1999","nova":false},{"operadora":"TIM","tecnologia":"2G","municipio":"Carmo do Rio Claro","lat":-20.989783,"lon":-46.105975,"data":"08/11/1999","nova":false},{"operadora":"TIM","tecnologia":"4G","municipio":"Campina Verde","lat":-19.538239,"lon":-49.484572,"data":"08/11/1999","nova":false},{"operadora":"TIM","tecnologia":"3G","municipio":"Campina Verde","lat":-19.538239,"lon":-49.484572,"data":"08/11/1999","nova":false},{"operadora":"TIM","tecnologia":"2G","municipio":"Campina Verde","lat":-19.538239,"lon":-49.484572,"data":"08/11/1999","nova":false},{"operadora":"TIM","tecnologia":"3G","municipio":"Juiz de Fora","lat":-21.723381,"lon":-43.3266,"data":"30/11/1999","nova":false},{"operadora":"TIM","tecnologia":"2G","municipio":"Juiz de Fora","lat":-21.723381,"lon":-43.3266,"data":"30/11/1999","nova":false},{"operadora":"TIM","tecnologia":"4G","municipio":"Juiz de Fora","lat":-21.723381,"lon":-43.3266,"data":"30/11/1999","nova":false},{"operadora":"Vivo","tecnologia":"3G","municipio":"Paracatu","lat":-17.19361,"lon":-46.92472,"data":"03/12/1999","nova":false},{"operadora":"Vivo","tecnologia":"2G","municipio":"Paracatu","lat":-17.19361,"lon":-46.92472,"data":"03/12/1999","nova":false},{"operadora":"Vivo","tecnologia":"3G","municipio":"Paracatu","lat":-17.2248,"lon":-46.86838,"data":"15/06/2021","nova":false},{"operadora":"Vivo","tecnologia":"4G","municipio":"Paracatu","lat":-17.2248,"lon":-46.86838,"data":"15/06/2021","nova":false},{"operadora":"Vivo","tecnologia":"2G","municipio":"Paracatu","lat":-17.2248,"lon":-46.86838,"data":"15/06/2021","nova":false},{"operadora":"Vivo","tecnologia":"3G","municipio":"Unaí","lat":-16.37556,"lon":-46.88,"data":"05/07/2021","nova":false},{"operadora":"Vivo","tecnologia":"2G","municipio":"Unaí","lat":-16.37556,"lon":-46.88,"data":"05/07/2021","nova":false},{"operadora":"Vivo","tecnologia":"3G","municipio":"Unaí","lat":-16.35806,"lon":-47.11528,"data":"03/12/1999","nova":false},{"operadora":"Vivo","tecnologia":"2G","municipio":"Unaí","lat":-16.35806,"lon":-47.11528,"data":"03/12/1999","nova":false},{"operadora":"TIM","tecnologia":"2G","municipio":"Piumhi","lat":-20.44083,"lon":-45.89944,"data":"08/11/1999","nova":false},{"operadora":"TIM","tecnologia":"3G","municipio":"São Gonçalo do Sapucaí","lat":-21.90389,"lon":-45.58194,"data":"30/11/1999","nova":false},